address,close_hour,latitude,longitude,name,open_hour,point,postal_code,reviews,url
神奈川県川崎市中原区新丸子東２－８８５,22:00,35.5790206,139.6635248,デニーズ 武蔵小杉店 Denny's MUSASHI-KOSUGI,11:00,4.3,211-0004,211,https://www.ubereats.com/ja-JP/yokohama/food-delivery/%E3%83%86%E3%83%8B%E3%83%BC%E3%82%B9-%E6%AD%A6%E8%94%B5%E5%B0%8F%E6%9D%89%E5%BA%97-dennys-musashi-kosugi/HZ38aBt6Q7i40am1CYt1sw/?promo=247a0d4f-fdc8-4773-9a85-7278bf88641b
1 Chome-11-14 Shinjō Nakahara-Ku ソシアルビル１Ｆ Kawasaki-Shi Kanagawa-ken,22:00,35.5846,139.631194,新城仲通り中央酒場とり吉 Shinjo Torikichi,17:00,,211-0044,,https://www.ubereats.com/ja-JP/yokohama/food-delivery/%E6%96%B0%E5%9F%8E%E4%BB%B2%E9%80%9A%E3%82%8A%E4%B8%AD%E5%A4%AE%E9%85%92%E5%A0%B4%E3%81%A8%E3%82%8A%E5%90%89-shinjo-torikichi/vyh6JL7bR3i9qbjskPPXzA/
５丁目-５-2 二子 高津区 ジュメリ高津1階 川崎市 神奈川県,22:30,35.601835,139.617213,エビン 高津店 yabin takatsu,10:45,4.5,213-0002,229,https://www.ubereats.com/ja-JP/yokohama/food-delivery/%E3%82%A8%E3%83%92%E3%83%B3-%E9%AB%98%E6%B4%A5%E5%BA%97-yabin-takatsu/CgYF9xNWQMuAftet05SCrw/
川崎市中原区新丸子東1-827 YM新丸子1F,23:55,35.58023652485256,139.66324782926563,魚ダイニングJin sakana dining Jin,12:30,4.6,,32,https://www.ubereats.com/ja-JP/yokohama/food-delivery/%E9%AD%9A%E3%82%BF%E3%82%A4%E3%83%8B%E3%83%B3%E3%82%AFjin-sakana-dining-jin/29-WznFeQI-VpQj6ZY7t-w/
中原区新丸子町915 Yokohama,22:30,35.5778875,139.6603141,タイ屋台居酒屋バカソウルアジア 武蔵小杉 Bakasoul Asia Musashi-Kosugi,12:00,4.3,211-0005,41,https://www.ubereats.com/ja-JP/yokohama/food-delivery/%E3%82%BF%E3%82%A4%E5%B1%8B%E5%8F%B0%E5%B1%85%E9%85%92%E5%B1%8B%E3%83%8F%E3%82%AB%E3%82%BD%E3%82%A6%E3%83%AB%E3%82%A2%E3%82%B7%E3%82%A2-%E6%AD%A6%E8%94%B5%E5%B0%8F%E6%9D%89-bakasoul-asia-musashi-kosugi/IWk0nAixTUW0s4scy5MXUw/
神奈川県川崎市高津区新作6-9-41 Kanagawa,22:30,35.5864285,139.6282026,ナポリの窯 武蔵新城 Naporinokama Musashishinjo,11:00,,213-0014,,https://www.ubereats.com/ja-JP/yokohama/food-delivery/%E3%83%8A%E3%83%9B%E3%83%AA%E3%81%AE%E7%AA%AF-%E6%AD%A6%E8%94%B5%E6%96%B0%E5%9F%8E-naporinokama-musashishinjo/Pnv8OzM-QzWPlV8D_xH_VQ/
神奈川県川崎市中原区木月四丁目31番7号 リンコー日吉ビル1階,22:00,35.5590088,139.6517927,はま寿司 日吉店 Hamazushi Hiyoshi,11:00,4.2,211-0025,143,https://www.ubereats.com/ja-JP/yokohama/food-delivery/%E3%81%AF%E3%81%BE%E5%AF%BF%E5%8F%B8-%E6%97%A5%E5%90%89%E5%BA%97-hamazushi-hiyoshi/isH66YsOSjmblAQ6VQWGng/
神奈川県 川崎市 中原区 丸子通 1-636 Kawasaki,23:00,35.5817451,139.663669,焼肉 慶 Yakiniku Kei,17:00,,211-0006,,https://www.ubereats.com/ja-JP/yokohama/food-delivery/%E7%84%BC%E8%82%89-%E6%85%B6-yakiniku-kei/Vp7XxgwzThWpu75322MOSg/
Nakahara-Ku Shinmarukomachi 川崎市中原区 Kanagawa-ken,22:30,35.580032,139.66032,ナマステ 新丸子店 Namaste Shinmaruko,11:15,4.6,211-0005,34,https://www.ubereats.com/ja-JP/yokohama/food-delivery/%E3%83%8A%E3%83%9E%E3%82%B9%E3%83%86-%E6%96%B0%E4%B8%B8%E5%AD%90%E5%BA%97-namaste-shinmaruko/GfbZ9EXES2qSq-m9Q7Qzpw/
Nakahara-Ku Kosugimachi 1 Chome 川崎市中原区 神奈川県,22:30,35.578718,139.659095,伊佐木商店 武蔵小杉店 isakisyouten,17:00,4.3,211-0063,18,https://www.ubereats.com/ja-JP/yokohama/food-delivery/%E4%BC%8A%E4%BD%90%E6%9C%A8%E5%95%86%E5%BA%97-%E6%AD%A6%E8%94%B5%E5%B0%8F%E6%9D%89%E5%BA%97-isakisyouten/OyBCNWQQQwSGpX649DkeIw/
Nakahara-Ku Kosugimachi 3 Chome Kawasaki-Shi Kanagawa-ken,13:30,35.574331,139.658695,魚武酒場 UODAKE Sakaba,11:30,4.8,211-0063,10,https://www.ubereats.com/ja-JP/yokohama/food-delivery/%E9%AD%9A%E6%AD%A6%E9%85%92%E5%A0%B4-uodake-sakaba/6K0r3gQHTsqF0nj2UvViDw/
3 Chome-13-30 Kizuki Nakahara-Ku 店舗 ２Ｆ,22:00,35.565278,139.64915,サパナマハル Sapana Mahal,11:00,4.3,,95,https://www.ubereats.com/ja-JP/yokohama/food-delivery/%E3%82%B5%E3%83%8F%E3%83%8A%E3%83%9E%E3%83%8F%E3%83%AB-sapana-mahal/o8dBnKBkSPenQ1THw9L7rA/
中原区新丸子東２－９２６－１５  マノア武蔵小杉１階 Kawasaki,22:30,35.5770788,139.6627968,マヤレストラン Maya Restaurant,10:30,4.5,211-0004,81,https://www.ubereats.com/ja-JP/yokohama/food-delivery/%E3%83%9E%E3%83%A4%E3%83%AC%E3%82%B9%E3%83%88%E3%83%A9%E3%83%B3-maya-restaurant/ei3ueFRFTk6Jm_szMWNmNA/
Nakahara-Ku Kizuki 1 Chome−29 1F Kawasaki-Shi Kanagawa-ken,22:00,35.565742,139.651417,ジャイプール Jaipur,17:00,4.3,211-0025,11,https://www.ubereats.com/ja-JP/yokohama/food-delivery/%E3%82%B7%E3%83%A3%E3%82%A4%E3%83%95%E3%83%BC%E3%83%AB-jaipur/nS3WLvBuTky3az1JNtP3Pw/
川崎市中原区 小杉町1-525-1 Kawasaki,23:00,35.5800526,139.6597517,旬彩 よし家 Shunsai YOSHIYA,17:00,4.6,211-0063,18,https://www.ubereats.com/ja-JP/yokohama/food-delivery/%E6%97%AC%E5%BD%A9-%E3%82%88%E3%81%97%E5%AE%B6-shunsai-yoshiya/WWNAUiqGQhC8jHWqJCXUJw/
高津区二子５－３－１９ 新井邸１Ｆ Kawasaki,23:00,35.6022935,139.6172984,二子５丁目酒場 Futako 5 Chome Sakaba,17:00,,213-0002,,https://www.ubereats.com/ja-JP/yokohama/food-delivery/%E4%BA%8C%E5%AD%905%E4%B8%81%E7%9B%AE%E9%85%92%E5%A0%B4-futako-5-chome-sakaba/VDAfNTGbSw65esiDWLICYA/
神奈川県 川崎市 中原区 田尻町58 小林ビル1階 Kanagawa,22:10,35.5600534,139.6723352,MeTeaタピオカ平間店,10:00,4.4,211-0014,377,https://www.ubereats.com/ja-JP/yokohama/food-delivery/metea%E3%82%BF%E3%83%92%E3%82%AA%E3%82%AB%E5%B9%B3%E9%96%93%E5%BA%97/brAsKjt4TXCLpXv6xizROQ/
中原区木月1-29-12  吉田店舗ビル１F Kawasaki,22:30,35.5658091,139.6514935,binwan,11:00,4.3,211-0025,82,https://www.ubereats.com/ja-JP/yokohama/food-delivery/binwan/aiEykDElT6y88qAxxm7ufw/
川崎市高津区 二子2-5-48 Kawasaki,14:30,35.6069916,139.6207746,モグモグ Mog Mog,17:00,4.4,213-0002,114,https://www.ubereats.com/ja-JP/yokohama/food-delivery/%E3%83%A2%E3%82%AF%E3%83%A2%E3%82%AF-mog-mog/wokEs2fyTJGRe0BRKA9aKQ/
神奈川県川崎市高津区溝口1-4-1 ﾉｸﾃｨﾌﾟﾗｻﾞ2 1Fﾌｰﾄﾞｺｰﾄ内,22:00,35.5992495,139.6130982,サブウェイ ノクティプラザ溝口店 SUBWAY Nocty Plaza Mizonokuchi,10:30,4.6,213-0001,98,https://www.ubereats.com/ja-JP/yokohama/food-delivery/%E3%82%B5%E3%83%95%E3%82%A6%E3%82%A7%E3%82%A4-%E3%83%8E%E3%82%AF%E3%83%86%E3%82%A3%E3%83%95%E3%83%A9%E3%82%B5%E6%BA%9D%E5%8F%A3%E5%BA%97-subway-nocty-plaza-mizonokuchi/6txM_3uaRIquAoNawpXoqg/
神奈川県川崎市高津区溝口1-14-1,22:00,35.6002093,139.6138008,からやま 溝の口 Karayama MIZONOKUCHI,10:30,4.4,213-0001,252,https://www.ubereats.com/ja-JP/yokohama/food-delivery/%E3%81%8B%E3%82%89%E3%82%84%E3%81%BE-%E6%BA%9D%E3%81%AE%E5%8F%A3-karayama-mizonokuchi/GOhpcU7dSWyyXh0jIg1AIg/
神奈川県川崎市中原区木月2-3-1,23:00,35.5649842,139.6546238,吉野家 元住吉駅前 Yoshinoya MOTOSUMIYOSHI-EKIMAE,10:00,4.5,211-0025,108,https://www.ubereats.com/ja-JP/yokohama/food-delivery/%E5%90%89%E9%87%8E%E5%AE%B6-%E5%85%83%E4%BD%8F%E5%90%89%E9%A7%85%E5%89%8D-yoshinoya-motosumiyoshi-ekimae/iJf6EXocTS2I05ISd57fig/
川崎市中原区 上小田中6-44-6 石場ビル1F Kawasaki,22:30,35.5849076,139.6416517,アジアン ハイウェイ レストラン Asian Highway resutaurant,11:00,4.5,211-0053,45,https://www.ubereats.com/ja-JP/yokohama/food-delivery/%E3%82%A2%E3%82%B7%E3%82%A2%E3%83%B3-%E3%83%8F%E3%82%A4%E3%82%A6%E3%82%A7%E3%82%A4-%E3%83%AC%E3%82%B9%E3%83%88%E3%83%A9%E3%83%B3-asian-highway-resutaurant/zYItl-Q-ShKP6l6b1_7q2g/
神奈川県川崎市高津区溝口２丁目３－１３,22:00,35.5998771,139.6096381,バーミヤン 溝の口店 Bamiyan Mizonokuchi,10:30,4.5,213-0001,102,https://www.ubereats.com/ja-JP/yokohama/food-delivery/%E3%83%8F%E3%83%BC%E3%83%9F%E3%83%A4%E3%83%B3-%E6%BA%9D%E3%81%AE%E5%8F%A3%E5%BA%97-bamiyan-mizonokuchi/NwDRwsDqS7-xf7e3844hsA/
川崎市中原区 木月1-23-13 ドゥーンフォルト1F Kawasaki,23:00,35.565665,139.653743,イザカヤミドリ IZAKAYA MIDORI,17:00,4.7,211-0025,43,https://www.ubereats.com/ja-JP/yokohama/food-delivery/%E3%82%A4%E3%82%B5%E3%82%AB%E3%83%A4%E3%83%9F%E3%83%88%E3%83%AA-izakaya-midori/SKEDejIxRDusOvCdMFu4tw/
Nakahara-Ku Shinmarukohigashi 2 Chome−2−９０７−2 Kawasaki-Shi Kanagawa-ken,22:00,35.577352,139.660712,くし家 串猿 武蔵小杉店 Kushiya KUSHIZARU Musashikosugi,17:00,4.4,211-0004,48,https://www.ubereats.com/ja-JP/yokohama/food-delivery/%E3%81%8F%E3%81%97%E5%AE%B6-%E4%B8%B2%E7%8C%BF-%E6%AD%A6%E8%94%B5%E5%B0%8F%E6%9D%89%E5%BA%97-kushiya-kushizaru-musashikosugi/rh4uK_5bSlOe7IyHooZ54Q/
1 Chome-772-5 Shinmarukohigashi Nakahara-Ku Kawasaki-Shi Kanagawa-ken,23:00,35.580601,139.66225,ロッコマン 新丸子店 ROCCOMAN Shinmaruko,11:30,4.4,211-0004,23,https://www.ubereats.com/ja-JP/yokohama/food-delivery/%E3%83%AD%E3%83%83%E3%82%B3%E3%83%9E%E3%83%B3-%E6%96%B0%E4%B8%B8%E5%AD%90%E5%BA%97-roccoman-shinmaruko/77pDX-gtQoSbqiE9wtXohA/
神奈川県川崎市中原区上小田中5-2-10 コーポ長瀬102,11:00,35.58136007549744,139.64018918579495,アスカダイニング Aska Dining,10:00,4.5,211-0053,34,https://www.ubereats.com/ja-JP/yokohama/food-delivery/%E3%82%A2%E3%82%B9%E3%82%AB%E3%82%BF%E3%82%A4%E3%83%8B%E3%83%B3%E3%82%AF-aska-dining/VRnl0qcJSJat2SWAXSDePw/
中原区木月３－８－２２ 鈴木水産ビルＢ１－Ｂ Kawasaki,22:30,35.565504,139.649158,インドおつまみ シリス 元住吉店 Indian Snacks Shirish Motosumiyoshi,11:00,,211-0025,,https://www.ubereats.com/ja-JP/yokohama/food-delivery/%E3%82%A4%E3%83%B3%E3%83%88%E3%81%8A%E3%81%A4%E3%81%BE%E3%81%BF-%E3%82%B7%E3%83%AA%E3%82%B9-%E5%85%83%E4%BD%8F%E5%90%89%E5%BA%97-indian-snacks-shirish-motosumiyoshi/7k_oIXXPR02C3VdZNrMenQ/
Nakahara-Ku Kizuki 3 Chome−8 Kawasaki-Shi Kanagawa-ken,22:30,35.565504,139.649158,シリス 元住吉店 Shirish Motosumiyoshi,11:00,4.5,211-0025,13,https://www.ubereats.com/ja-JP/yokohama/food-delivery/%E3%82%B7%E3%83%AA%E3%82%B9-%E5%85%83%E4%BD%8F%E5%90%89%E5%BA%97-shirish-motosumiyoshi/esRDHyzyTbeDVsICyJ_Sww/
神奈川県川崎市中原区上小田中４－２－１,23:00,35.581376,139.640982,マクドナルド ビーンズ武蔵中原店 McDonald's BEANS MUSASHI NAKAHARA,10:30,4.5,2110053,500,https://www.ubereats.com/ja-JP/yokohama/food-delivery/%E3%83%9E%E3%82%AF%E3%83%88%E3%83%8A%E3%83%AB%E3%83%88-%E3%83%92%E3%83%BC%E3%83%B3%E3%82%B9%E6%AD%A6%E8%94%B5%E4%B8%AD%E5%8E%9F%E5%BA%97-mcdonalds-beans-musashi-nakahara/7DKpURPwQByeEmOn-NOyUw/
1 Chome-2-11 Hiyoshihonchō Kōhoku-Ku Yokohama-Shi Kanagawa-ken,23:00,35.554089,139.646069,ロッコマン 日吉店 ROCCOMAN Hiyoshi,11:30,,223-0062,,https://www.ubereats.com/ja-JP/yokohama/food-delivery/%E3%83%AD%E3%83%83%E3%82%B3%E3%83%9E%E3%83%B3-%E6%97%A5%E5%90%89%E5%BA%97-roccoman-hiyoshi/kA9W3LXVRzGZTmsrFuK4kw/
川崎市中原区 上小田中6-44-6 石場ビル1F Kawasaki,22:30,35.5849076,139.6416517,アジアンおつまみパプラ Asian Snack Papura,17:00,,211-0053,,https://www.ubereats.com/ja-JP/yokohama/food-delivery/%E3%82%A2%E3%82%B7%E3%82%A2%E3%83%B3%E3%81%8A%E3%81%A4%E3%81%BE%E3%81%BF%E3%83%8F%E3%83%95%E3%83%A9-asian-snack-papura/kDdhfb6TTFqf_2UWYxIMbg/
1 Chome-8-3 Mizonokuchi Takatsu-Ku Mizonokuchi Ex 2F Kawasaki-Shi Kanagawa-ken,23:00,35.599593,139.612531,焼肉うしお 溝の口店 Yakinikuushio Mizonokuchiten,16:00,,213-0001,,https://www.ubereats.com/ja-JP/yokohama/food-delivery/%E7%84%BC%E8%82%89%E3%81%86%E3%81%97%E3%81%8A-%E6%BA%9D%E3%81%AE%E5%8F%A3%E5%BA%97-yakinikuushio-mizonokuchiten/jI0mFbGKToexjJk2kJtXRQ/
神奈川県横浜市港北区日吉本町1-1-9 ビッグ日吉駅前店舗1・2F,22:00,35.5540028,139.6458583,牛タン圭助 日吉店 Gyutan Keisuke HIYOSHI,17:00,4.2,223-0062,13,https://www.ubereats.com/ja-JP/yokohama/food-delivery/%E7%89%9B%E3%82%BF%E3%83%B3%E5%9C%AD%E5%8A%A9-%E6%97%A5%E5%90%89%E5%BA%97-gyutan-keisuke-hiyoshi/OebKFBwaSZK7z6cvdQVtBw/
1 Chome-11-21 Shimoshinjō Nakahara-Ku Kawasaki-Shi Kanagawa-ken,22:00,35.578768,139.633808,江戸前 廣寿司 Edomae Hirosushi,11:30,,211-0042,,https://www.ubereats.com/ja-JP/yokohama/food-delivery/%E6%B1%9F%E6%88%B8%E5%89%8D-%E5%BB%A3%E5%AF%BF%E5%8F%B8-edomae-hirosushi/6xIbPvQIS1mwOi66JW2gMA/
Shinmarukomachi Nakahara-Ku ヴィラタルタル-ガ　102 Kawasaki-Shi Kanagawa-ken,23:00,35.57934,139.6602,灯 武蔵小杉店 AKARI MUSASHIKOSUGI,11:30,,211-0005,,https://www.ubereats.com/ja-JP/yokohama/food-delivery/%E7%81%AF-%E6%AD%A6%E8%94%B5%E5%B0%8F%E6%9D%89%E5%BA%97-akari-musashikosugi/AeLqAUimSZqgLgSs9i8Uaw/
3 Chome-1-12 Mizonokuchi Takatsu-Ku Kawasaki-Shi Kanagawa-Ken  Japan,22:00,35.6012677,139.614967,カパンナ Capanna,18:00,,213-0001,,https://www.ubereats.com/ja-JP/yokohama/food-delivery/%E3%82%AB%E3%83%8F%E3%83%B3%E3%83%8A-capanna/LsT69uRhQmCvWG7fUerFcA/
神奈川県川崎市高津区溝口1-12-14 ﾏｲﾌﾟﾗｻﾞﾋﾞﾙ 2階,22:00,35.6004018,139.6131365,博多もつ鍋 熱中屋 溝の口店 Hakata Motsunabe Necchuya Mizonokuchi,17:00,,213-0001,,https://www.ubereats.com/ja-JP/yokohama/food-delivery/%E5%8D%9A%E5%A4%9A%E3%82%82%E3%81%A4%E9%8D%8B-%E7%86%B1%E4%B8%AD%E5%B1%8B-%E6%BA%9D%E3%81%AE%E5%8F%A3%E5%BA%97-hakata-motsunabe-necchuya-mizonokuchi/BtQLP0p6Q6y5OtmjlLtcKw/
Kamihirama Nakahara-Ku Kawasaki-Shi Kanagawa-ken,22:30,35.5603404,139.6736723,エベレストキッチン EVEREST KITCHEN,11:00,,211-0013,,https://www.ubereats.com/ja-JP/yokohama/food-delivery/%E3%82%A8%E3%83%98%E3%83%AC%E3%82%B9%E3%83%88%E3%82%AD%E3%83%83%E3%83%81%E3%83%B3-everest-kitchen/GoROWKG1Q9OOG_-xtRZAEA/
神奈川県横浜市港北区下田町4-9-6 第一吉原ハイツ2号 Kanagawa,22:00,35.5582689,139.6292528,アロハチキン ALOHA CHICKEN,11:00,,223-0064,,https://www.ubereats.com/ja-JP/yokohama/food-delivery/%E3%82%A2%E3%83%AD%E3%83%8F%E3%83%81%E3%82%AD%E3%83%B3-aloha-chicken/Zn_RJs74SM6I6vFdUF4OjQ/
神奈川県横浜市港北区下田町4-9-6 第一吉原ハイツ2号 Kanagawa,22:00,35.5582689,139.6292528,丼専門店丼ライダー BOWL RIDER,11:00,,223-0064,,https://www.ubereats.com/ja-JP/yokohama/food-delivery/%E4%B8%BC%E5%B0%82%E9%96%80%E5%BA%97%E4%B8%BC%E3%83%A9%E3%82%A4%E3%82%BF%E3%83%BC-bowl-rider/pF5prEyoT7SDhkDfOjYtxw/
神奈川県横浜市港北区下田町4-9-6 第一吉原ハイツ2号 Kanagawa,22:00,35.5582689,139.6292528,キーマーズ keemers,11:00,,223-0064,,https://www.ubereats.com/ja-JP/yokohama/food-delivery/%E3%82%AD%E3%83%BC%E3%83%9E%E3%83%BC%E3%82%B9-keemers/TvuULDanS3aN7hE6gRxIFg/
神奈川県横浜市港北区下田町4-9-6 第一吉原ハイツ2号 Kanagawa,22:00,35.5582689,139.6292528,極上 台湾飯 SPECIAL TAIWAN FOOD,11:00,,223-0064,,https://www.ubereats.com/ja-JP/yokohama/food-delivery/%E6%A5%B5%E4%B8%8A-%E5%8F%B0%E6%B9%BE%E9%A3%AF-special-taiwan-food/WmSKh1uBQWyg74rqovhbbQ/
693 Kitayachō Nakahara-Ku Kawasaki-Shi Kanagawa-Ken  Japan,23:00,35.5636899,139.6700864,腹ペコ Harapeko,11:00,,211-0015,,https://www.ubereats.com/ja-JP/yokohama/food-delivery/%E8%85%B9%E3%83%98%E3%82%B3-harapeko/5nFflewOQamARsk7zpu2yg/
4 Chome-32-6 Miyauchi Nakahara-Ku Kawasaki-Shi Kanagawa-ken,22:00,35.586683,139.64216,サワディーナマステ 武蔵中原店 Sawadee Namaste Musashi Nakahara,11:00,,211-0051,,https://www.ubereats.com/ja-JP/yokohama/food-delivery/%E3%82%B5%E3%83%AF%E3%83%86%E3%82%A3%E3%83%BC%E3%83%8A%E3%83%9E%E3%82%B9%E3%83%86-%E6%AD%A6%E8%94%B5%E4%B8%AD%E5%8E%9F%E5%BA%97-sawadee-namaste-musashi-nakahara/cpNPDpD7S2qGgpzoSkvAIA/
1 Chome-19-18 Hiyoshihonchō Kōhoku-Ku 3F Yokohama-Shi Kanagawa-ken,22:00,35.55332,139.6453,ナンバースリー カフェアンドダイニング Number 3 Cafe&Dining,11:30,,223-0062,,https://www.ubereats.com/ja-JP/yokohama/food-delivery/%E3%83%8A%E3%83%B3%E3%83%8F%E3%83%BC%E3%82%B9%E3%83%AA%E3%83%BC-%E3%82%AB%E3%83%95%E3%82%A7%E3%82%A2%E3%83%B3%E3%83%88%E3%82%BF%E3%82%A4%E3%83%8B%E3%83%B3%E3%82%AF-number-3-cafe%26dining/GcOLFv9BROGYC6wuOdVxMQ/
2 Chome-5-14 Kizuki Nakahara-Ku Kawasaki-Shi Kanagawa-ken,23:00,35.564609,139.654913,ロッコマン 元住吉店 ROCCOMAN Motosumiyoshi,11:30,,211-0025,,https://www.ubereats.com/ja-JP/yokohama/food-delivery/%E3%83%AD%E3%83%83%E3%82%B3%E3%83%9E%E3%83%B3-%E5%85%83%E4%BD%8F%E5%90%89%E5%BA%97-roccoman-motosumiyoshi/38unxV64RZaPHUfiIImfXw/
Nakahara-Ku Shinjō 1 Chome−15 Kawasaki-Shi Kanagawa-ken,22:00,35.584136,139.631377,ラ ミア フォルナーチェ Pizzeria & Bar La Mia Fornace,11:30,,211-0044,,https://www.ubereats.com/ja-JP/yokohama/food-delivery/%E3%83%A9-%E3%83%9F%E3%82%A2-%E3%83%95%E3%82%A9%E3%83%AB%E3%83%8A%E3%83%BC%E3%83%81%E3%82%A7-pizzeria-%26-bar-la-mia-fornace/ufyafUODQ-mzCuLbcM5atw/
1 Chome-12-5 Mizonokuchi Takatsu-Ku 永原ビル2F Kawasaki-Shi Kanagawa-ken,23:00,35.600573,139.612168,寿しやの台所/ときしらず Susiyanodaidocoro Tokishirazu,16:00,,213-0001,,https://www.ubereats.com/ja-JP/yokohama/food-delivery/%E5%AF%BF%E3%81%97%E3%82%84%E3%81%AE%E5%8F%B0%E6%89%80-%E3%81%A8%E3%81%8D%E3%81%97%E3%82%89%E3%81%99-susiyanodaidocoro-tokishirazu/5Antl-32T321JzEUG978-Q/
２丁目-１１-31 上新城 中原区 川崎市 神奈川県,23:00,35.587244,139.630081,スペアリブハウスハウディ Howdy,18:00,,211-0045,,https://www.ubereats.com/ja-JP/yokohama/food-delivery/%E3%82%B9%E3%83%98%E3%82%A2%E3%83%AA%E3%83%95%E3%83%8F%E3%82%A6%E3%82%B9%E3%83%8F%E3%82%A6%E3%83%86%E3%82%A3-howdy/c-u_7L2YSGOENdGZMG65YA/
Nakahara-Ku Shinmarukomachi 川崎市中原区 神奈川県,22:00,35.578988,139.661053,ＣＯＳＵＧＩ 市場 ＹＡ‐ＵＯ‐ＹＡ COSUGI Ichiba YA-UO-YA,18:00,,211-0005,,https://www.ubereats.com/ja-JP/yokohama/food-delivery/cosugi-%E5%B8%82%E5%A0%B4-ya%E2%80%90uo%E2%80%90ya-cosugi-ichiba-ya-uo-ya/oYW9sRm_RtCRK9Oj4UyQOA/
神奈川県川崎市中原区新城3-1-16 Kanagawa,23:30,35.5866299,139.6305558,串カツ田中 武蔵新城 Kushikatsu Tanaka Musashishinjo,12:00,,211-0044,,https://www.ubereats.com/ja-JP/yokohama/food-delivery/%E4%B8%B2%E3%82%AB%E3%83%84%E7%94%B0%E4%B8%AD-%E6%AD%A6%E8%94%B5%E6%96%B0%E5%9F%8E-kushikatsu-tanaka-musashishinjo/jP3eqNmcSHar8R1IeXEvnw/?promo=7da55a8e-31bd-4f2f-a0cd-87ae8938e73f
5-Chōme-5-2 Futago Takatsu-Ku ジェメリ高津1階 Kawasaki Kanagawa,22:10,35.6018348,139.6172961,ミシュラさんのアジアン串 高津店 Mishra's Asian-gushi Takatsu,16:45,,213-0002,,https://www.ubereats.com/ja-JP/yokohama/food-delivery/%E3%83%9F%E3%82%B7%E3%83%A5%E3%83%A9%E3%81%95%E3%82%93%E3%81%AE%E3%82%A2%E3%82%B7%E3%82%A2%E3%83%B3%E4%B8%B2-%E9%AB%98%E6%B4%A5%E5%BA%97-mishras-asian-gushi-takatsu/LbMUo_R9SBKhZS_4YyT7kw/
1 Chome-12-12 Mizonokuchi Takatsu-Ku Kawasaki-Shi Kanagawa-Ken  Japan 1F,18:30,35.6002815,139.6129925,都夏 溝の口 Tsuge Mizonokuchi,17:00,,213-0001,,https://www.ubereats.com/ja-JP/yokohama/food-delivery/%E9%83%BD%E5%A4%8F-%E6%BA%9D%E3%81%AE%E5%8F%A3-tsuge-mizonokuchi/pixUORhGQdGTMvVDX22wSA/
川崎市高津区下作延2－7－3 Kanagawa,22:30,35.6002185,139.606466,タイレストラン サワディ THAI SAWADI,11:00,4.2,213-0033,28,https://www.ubereats.com/ja-JP/yokohama/food-delivery/%E3%82%BF%E3%82%A4%E3%83%AC%E3%82%B9%E3%83%88%E3%83%A9%E3%83%B3-%E3%82%B5%E3%83%AF%E3%83%86%E3%82%A3-thai-sawadi/bpHd2ja0RXW_lUP7FQIrxQ/
高津区二子5-5-2 ジェメリ高津1階 Kanagawa,22:15,35.6018348,139.6172961,タイレストラン アロイ高津店 THAIRESUTAURANT AROI,10:45,4.0,213-0002,21,https://www.ubereats.com/ja-JP/yokohama/food-delivery/%E3%82%BF%E3%82%A4%E3%83%AC%E3%82%B9%E3%83%88%E3%83%A9%E3%83%B3-%E3%82%A2%E3%83%AD%E3%82%A4%E9%AB%98%E6%B4%A5%E5%BA%97-thairesutaurant-aroi/-cyYEWUITj2Hlr7KueVSFg/
高津区溝ノ口２－１６－７ Kawasaki,22:10,35.602188,139.6117686,チャーハン専門店 RYUKA Fried Rice Shop RYUKA,11:30,4.5,213-0000,33,https://www.ubereats.com/ja-JP/yokohama/food-delivery/%E3%83%81%E3%83%A3%E3%83%BC%E3%83%8F%E3%83%B3%E5%B0%82%E9%96%80%E5%BA%97-ryuka-fried-rice-shop-ryuka/CSfv1iTGREWG34dm5UHzng/
川崎市高津区二子4-1-6  グランドール高津 2F,22:00,35.60287043275762,139.61719009404183,餃子バルランタン 高津駅前店 Gyouza Bar Lantern,12:00,4.1,,25,https://www.ubereats.com/ja-JP/yokohama/food-delivery/%E9%A4%83%E5%AD%90%E3%83%8F%E3%83%AB%E3%83%A9%E3%83%B3%E3%82%BF%E3%83%B3-%E9%AB%98%E6%B4%A5%E9%A7%85%E5%89%8D%E5%BA%97-gyouza-bar-lantern/XybKPBxlStuoRnBU-7cnTQ/
神奈川県川崎市高津区溝口1-12-1  大久保ビル 2F Yokohama,23:00,35.6005089,139.6118769,骨付き肉×ワインバル GRILL MEAT FACTORY 溝の口店 GRILL MEAT FACTORY,17:00,3.6,213-0001,13,https://www.ubereats.com/ja-JP/yokohama/food-delivery/%E9%AA%A8%E4%BB%98%E3%81%8D%E8%82%89%C3%97%E3%83%AF%E3%82%A4%E3%83%B3%E3%83%8F%E3%83%AB-grill-meat-factory-%E6%BA%9D%E3%81%AE%E5%8F%A3%E5%BA%97-grill-meat-factory/Seky06J-Sha0wIIFlocyyg/
川崎市高津区 梶ケ谷2-1-14 1F Kawasaki,22:30,35.5909403,139.6042576,ナマステヒマラヤ 梶ヶ谷店 Namaste Himalaya Kajigaya,11:00,4.7,213-0015,51,https://www.ubereats.com/ja-JP/yokohama/food-delivery/%E3%83%8A%E3%83%9E%E3%82%B9%E3%83%86%E3%83%92%E3%83%9E%E3%83%A9%E3%83%A4-%E6%A2%B6%E3%83%B6%E8%B0%B7%E5%BA%97-namaste-himalaya-kajigaya/IzaXKbwjTo6N4j5-Fys5Qw/
神奈川県川崎市中原区木月４丁目３８－４ ビージェネテック２Ｆ,22:00,35.5590738,139.6526413,グラッチェガーデンズ 川崎木月店 Grazie Gardens Kawasaki Kizuki,10:30,4.4,211-0025,34,https://www.ubereats.com/ja-JP/yokohama/food-delivery/%E3%82%AF%E3%83%A9%E3%83%83%E3%83%81%E3%82%A7%E3%82%AB%E3%83%BC%E3%83%86%E3%83%B3%E3%82%B9-%E5%B7%9D%E5%B4%8E%E6%9C%A8%E6%9C%88%E5%BA%97-grazie-gardens-kawasaki-kizuki/hTCzc94KRLCrDXKrjL3jjg/
神奈川県川崎市中原区下沼部1771,23:00,35.572309017401345,139.66799016666255,竹とんぼ Taketonbo,16:00,4.6,,46,https://www.ubereats.com/ja-JP/yokohama/food-delivery/%E7%AB%B9%E3%81%A8%E3%82%93%E3%81%BB-taketonbo/X47MK5baSEWOSu6SZXpUaw/
中原区新丸子町752-1 1F Kanagawa,22:30,35.580032,139.66032,"カレー丼専門店グッド☆ Curry-Don Shop ""GOOD☆""",11:15,4.7,211-0005,10,https://www.ubereats.com/ja-JP/yokohama/food-delivery/%E3%82%AB%E3%83%AC%E3%83%BC%E4%B8%BC%E5%B0%82%E9%96%80%E5%BA%97%E3%82%AF%E3%83%83%E3%83%88-curry-don-shop-%22good%22/QYeRqB6HR8qqNv8WORNnsQ/
2 Chome-2-11 Hiyoshi Kōhoku-Ku サン日吉1F Yokohama-Shi Kanagawa-ken,23:00,35.554328,139.646528,ピッツェリア レジスタ Pizzeria Regista,11:00,4.4,223-0061,82,https://www.ubereats.com/ja-JP/yokohama/food-delivery/%E3%83%92%E3%83%83%E3%83%84%E3%82%A7%E3%83%AA%E3%82%A2-%E3%83%AC%E3%82%B7%E3%82%B9%E3%82%BF-pizzeria-regista/oZHvDRP-TgG3tO4pFLjIuA/
神奈川県川崎市高津区溝の口2-12-10  2F,22:30,35.601084,139.611894,窯焼きピザ NIGO Kamayakipizza NIGO,11:30,3.9,,32,https://www.ubereats.com/ja-JP/yokohama/food-delivery/%E7%AA%AF%E7%84%BC%E3%81%8D%E3%83%92%E3%82%B5-nigo-kamayakipizza-nigo/AK56K7nvQXSFjMJ0Y8FNVA/
中原区下沼部１７５９ Kawasaki,23:00,35.5732216,139.6676083,新田商店 Shinden Izakaya,17:00,,211-0011,,https://www.ubereats.com/ja-JP/yokohama/food-delivery/%E6%96%B0%E7%94%B0%E5%95%86%E5%BA%97-shinden-izakaya/0b6w57YoS-6lpHRq6E4ivA/
Takatsu-Ku Futago 4 Chome−1−２ 中興ビルb1f Kawasaki-Shi Kanagawa-ken,23:00,35.602984,139.616892,べこまる 高津総本家 Bekomaru TAKATSU SOHONKE,11:30,4.4,213-0002,81,https://www.ubereats.com/ja-JP/yokohama/food-delivery/%E3%81%B8%E3%81%93%E3%81%BE%E3%82%8B-%E9%AB%98%E6%B4%A5%E7%B7%8F%E6%9C%AC%E5%AE%B6-bekomaru-takatsu-sohonke/LijCZj7TQSCduPeGXeuHsA/
1 Chome-4-25 Hiyoshihonchō Kōhoku-Ku Yokohama-Shi Kanagawa-ken,14:00,35.55424,139.645304,ホアホア HOA HOA,17:30,4.7,223-0062,72,https://www.ubereats.com/ja-JP/yokohama/food-delivery/%E3%83%9B%E3%82%A2%E3%83%9B%E3%82%A2-hoa-hoa/5eFd4ZEISlGEtC_j8MeBHg/
1 Chome-15-5 Shinjō Nakahara-Ku 大光トラストビル１Ｆ Kawasaki-Shi Kanagawa-ken,22:00,35.58408,139.631418,キッチンさかば くいきち Kuikichi,17:00,,211-0044,,https://www.ubereats.com/ja-JP/yokohama/food-delivery/%E3%82%AD%E3%83%83%E3%83%81%E3%83%B3%E3%81%95%E3%81%8B%E3%81%AF-%E3%81%8F%E3%81%84%E3%81%8D%E3%81%A1-kuikichi/bSpTwS8RS4SejwSdVH5NPQ/
中原区上新城２－６－１３  張本ビル１Ｆ Kanagawa,22:15,35.5881529,139.6308341,タイレストラン アロイ武蔵新城店 THAIRESUTAURANT AROI,10:45,,211-0045,,https://www.ubereats.com/ja-JP/yokohama/food-delivery/%E3%82%BF%E3%82%A4%E3%83%AC%E3%82%B9%E3%83%88%E3%83%A9%E3%83%B3-%E3%82%A2%E3%83%AD%E3%82%A4%E6%AD%A6%E8%94%B5%E6%96%B0%E5%9F%8E%E5%BA%97-thairesutaurant-aroi/gGxrtnAaS1OKeONG53wCdA/
高津区溝ノ口２－１６－７ Kawasaki,22:10,35.602188,139.6117686,龍華飯店 溝の口店 Ryuka Hanten Mizonokuchi,11:25,4.4,213-0000,42,https://www.ubereats.com/ja-JP/yokohama/food-delivery/%E9%BE%8D%E8%8F%AF%E9%A3%AF%E5%BA%97-%E6%BA%9D%E3%81%AE%E5%8F%A3%E5%BA%97-ryuka-hanten-mizonokuchi/xecGK6GJTque6BPPBJDWUg/
17 ２ 2 ２丁目-２-高津区 下作延 高津区 川崎市 神奈川県  Japan,23:00,35.59964899999999,139.608995,串焼のんき Kushiyaki Nonki,16:00,4.4,213-0033,48,https://www.ubereats.com/ja-JP/yokohama/food-delivery/%E4%B8%B2%E7%84%BC%E3%81%AE%E3%82%93%E3%81%8D-kushiyaki-nonki/mMgHy2iFQ2mGrEKt4Va93A/
1 Chome-1-3 Hiyoshihonchō Kōhoku-Ku  B1 Yokohama-Shi Kanagawa-ken,22:55,35.553683,139.646067,64(ロクヨン)ダイナー 日吉バーガー 64diner Hiyoshi-burger,11:45,4.2,223-0062,94,https://www.ubereats.com/ja-JP/yokohama/food-delivery/64%E3%83%AD%E3%82%AF%E3%83%A8%E3%83%B3%E3%82%BF%E3%82%A4%E3%83%8A%E3%83%BC-%E6%97%A5%E5%90%89%E3%83%8F%E3%83%BC%E3%82%AB%E3%83%BC-64diner-hiyoshi-burger/oKuUSfKZRemE28xNS1K6Yw/
2 Chome-907-25 Shinmarukohigashi Nakahara-Ku Kawasaki-Shi Kanagawa-ken,22:00,35.577373,139.660694,がブリチキン。武蔵小杉店 Gaburichicken Musashikosugi,17:00,4.6,211-0004,42,https://www.ubereats.com/ja-JP/yokohama/food-delivery/%E3%81%8B%E3%83%95%E3%83%AA%E3%83%81%E3%82%AD%E3%83%B3%E3%80%82%E6%AD%A6%E8%94%B5%E5%B0%8F%E6%9D%89%E5%BA%97-gaburichicken-musashikosugi/iYPqm_ssTeu7W1DxpLwi_g/
神奈川県 川崎市 高津区 梶ヶ谷2-3-14,23:00,35.59178722796421,139.6018227245204,中華料理 鶴軒 Chinese Kakuken,11:20,4.3,,69,https://www.ubereats.com/ja-JP/yokohama/food-delivery/%E4%B8%AD%E8%8F%AF%E6%96%99%E7%90%86-%E9%B6%B4%E8%BB%92-chinese-kakuken/CVWsMdueS9afE1d0Jd4vMQ/
2 Chome-13-28 Mizonokuchi Takatsu-Ku ファイブビル溝の口 ２Ｆ Kawasaki-Shi Kanagawa-ken,22:00,35.601792,139.613128,鉄板焼き しょうちゃん Teppanyaki Shochan,18:00,4.3,213-0001,33,https://www.ubereats.com/ja-JP/yokohama/food-delivery/%E9%89%84%E6%9D%BF%E7%84%BC%E3%81%8D-%E3%81%97%E3%82%87%E3%81%86%E3%81%A1%E3%82%83%E3%82%93-teppanyaki-shochan/ZN5IQ0XGTyOYR_LN1IvAuw/
神奈川県川崎市高津区溝口１丁目１－３,22:00,35.5988984,139.6116289,ジョナサン 溝の口駅前店 Jonathan's Mizonokuchi Ekimae,10:00,4.7,213-0001,68,https://www.ubereats.com/ja-JP/yokohama/food-delivery/%E3%82%B7%E3%83%A7%E3%83%8A%E3%82%B5%E3%83%B3-%E6%BA%9D%E3%81%AE%E5%8F%A3%E9%A7%85%E5%89%8D%E5%BA%97-jonathans-mizonokuchi-ekimae/8j0RZY7-ShiKHmngOYy3Sw/
神奈川県川崎市高津区溝口1-16-11,22:00,35.6007704,139.6135786,てけてけ 溝の口店 Teketeke MIZONOKUCHITENN,17:00,4.3,213-0001,40,https://www.ubereats.com/ja-JP/yokohama/food-delivery/%E3%81%A6%E3%81%91%E3%81%A6%E3%81%91-%E6%BA%9D%E3%81%AE%E5%8F%A3%E5%BA%97-teketeke-mizonokuchitenn/y3VlsNKNTRS5O6TR8ghCEQ/
神奈川県川崎市中原区北谷町46 さつきビル1F Tokyo,22:30,35.5619852,139.6709796,南インドダイニング ラニー South India Dining,10:30,4.4,211-0015,25,https://www.ubereats.com/ja-JP/yokohama/food-delivery/%E5%8D%97%E3%82%A4%E3%83%B3%E3%83%88%E3%82%BF%E3%82%A4%E3%83%8B%E3%83%B3%E3%82%AF-%E3%83%A9%E3%83%8B%E3%83%BC-south-india-dining/zuP7KC68SGG6w2suk9Ltlg/
神奈川県横浜市港北区日吉本町１丁目３－２,23:00,35.5538196,139.645447,Sガスト 日吉店 S Gusto Hiyoshi,11:00,4.6,223-0062,121,https://www.ubereats.com/ja-JP/yokohama/food-delivery/s%E3%82%AB%E3%82%B9%E3%83%88-%E6%97%A5%E5%90%89%E5%BA%97-s-gusto-hiyoshi/0oBTOBHIQMuKPNGB0z1stQ/
5-Chōme-9-6 Futago Takatsu-Ku Kawasaki Kanagawa  Japan,22:00,35.60141239999999,139.6160864,原価ビストロBAN！溝の口 Genka Bistro BAN! MIZONOKUCHI,17:00,,213-0002,,https://www.ubereats.com/ja-JP/yokohama/food-delivery/%E5%8E%9F%E4%BE%A1%E3%83%92%E3%82%B9%E3%83%88%E3%83%ADban!%E6%BA%9D%E3%81%AE%E5%8F%A3-genka-bistro-ban!-mizonokuchi/g43q4X41QqauVWoABDNH7Q/
1 Chome-18-12 Mizonokuchi Takatsu-Ku Kawasaki-Shi Kanagawa-Ken  Japan 2F,22:00,35.6009064,139.6140035,シャグン SHAGHUN,11:00,4.5,213-0001,106,https://www.ubereats.com/ja-JP/yokohama/food-delivery/%E3%82%B7%E3%83%A3%E3%82%AF%E3%83%B3-shaghun/pSkhUoKpT3KcQk2lqHKrcg/
川崎市高津区 二子2-5-48 キャッスルくらや 1F Kawasaki,14:30,35.6070565,139.6207773,チョウタリ CHAUTARI,17:00,4.6,213-0002,64,https://www.ubereats.com/ja-JP/yokohama/food-delivery/%E3%83%81%E3%83%A7%E3%82%A6%E3%82%BF%E3%83%AA-chautari/LZSznZ30Qamlmgc3lU2O5A/
神奈川県川崎市高津区北見方３丁目６－３３,22:00,35.597229,139.63181,バーミヤン 川崎北見方店 Bamiyan Kawasaki Kitamigata,10:30,4.2,213-0005,91,https://www.ubereats.com/ja-JP/yokohama/food-delivery/%E3%83%8F%E3%83%BC%E3%83%9F%E3%83%A4%E3%83%B3-%E5%B7%9D%E5%B4%8E%E5%8C%97%E8%A6%8B%E6%96%B9%E5%BA%97-bamiyan-kawasaki-kitamigata/LNCT4I2IR8iq2Cz8W4WoXg/
神奈川県川崎市中原区木月住吉町8-6 Kanagawa,22:00,35.5663919,139.6573855,キッチン オリジン 元住吉 Kitchen Origin Motosumiyoshi,10:00,4.5,211-0021,153,https://www.ubereats.com/ja-JP/yokohama/food-delivery/%E3%82%AD%E3%83%83%E3%83%81%E3%83%B3-%E3%82%AA%E3%83%AA%E3%82%B7%E3%83%B3-%E5%85%83%E4%BD%8F%E5%90%89-kitchen-origin-motosumiyoshi/BeNUmH-2QdieCsMXZw1c4Q/
神奈川県川崎市宮前区野川１２３３,22:00,35.5726885,139.6147273,ガスト 野川店 Gusto Nogawa,10:30,4.4,216-0001,46,https://www.ubereats.com/ja-JP/yokohama/food-delivery/%E3%82%AB%E3%82%B9%E3%83%88-%E9%87%8E%E5%B7%9D%E5%BA%97-gusto-nogawa/LBuDcES1TRaNZlarMciPag/
Nakahara-Ku Kizuki 2 Chome−5 Kawasaki-Shi Kanagawa-ken,22:30,35.564629,139.654879,焼肉 のんちゃん Yakiniku Nonchan,11:00,4.3,211-0025,73,https://www.ubereats.com/ja-JP/yokohama/food-delivery/%E7%84%BC%E8%82%89-%E3%81%AE%E3%82%93%E3%81%A1%E3%82%83%E3%82%93-yakiniku-nonchan/cNFo-EboRPGoyh8TLWczhw/
川崎市中原区 下小田中1-6-20 鹿島ビル1F Kawasaki,22:30,35.5810922,139.6388929,私のアジア 武蔵中原店 Watashi no Asia Musashinakahara,11:00,,211-0041,,https://www.ubereats.com/ja-JP/yokohama/food-delivery/%E7%A7%81%E3%81%AE%E3%82%A2%E3%82%B7%E3%82%A2-%E6%AD%A6%E8%94%B5%E4%B8%AD%E5%8E%9F%E5%BA%97-watashi-no-asia-musashinakahara/mRVCqDX1Q46LET2mT0rT_g/
川崎市中原区 下沼部1759  山本向河原第2ビル1F 2F Kawasaki,23:00,35.5732716,139.6676808,ニューナマステヒール向河原店 New Namaste Himal,11:00,4.6,211-0011,132,https://www.ubereats.com/ja-JP/yokohama/food-delivery/%E3%83%8B%E3%83%A5%E3%83%BC%E3%83%8A%E3%83%9E%E3%82%B9%E3%83%86%E3%83%92%E3%83%BC%E3%83%AB%E5%90%91%E6%B2%B3%E5%8E%9F%E5%BA%97-new-namaste-himal/F_L_ixPlTUG8h70PiKSe-A/
1 Chome-11-20 Mizonokuchi Takatsu-Ku 柴原ビル１F Kawasaki-Shi Kanagawa-ken,23:00,35.6002593,139.612176,牛タン木村屋 溝口本店 Gyutan Kimuraya MIZONOKUCHI-HONTEN,15:00,4.4,213-0001,109,https://www.ubereats.com/ja-JP/yokohama/food-delivery/%E7%89%9B%E3%82%BF%E3%83%B3%E6%9C%A8%E6%9D%91%E5%B1%8B-%E6%BA%9D%E5%8F%A3%E6%9C%AC%E5%BA%97-gyutan-kimuraya-mizonokuchi-honten/zg14hcJHTCKsaJXfaUkevw/
Kitayachō Nakahara-Ku Kawasaki-Shi Kanagawa-ken,23:00,35.561679,139.671067,アジアンダイニングアムリット Asian Dinning AMRIT,11:00,4.6,211-0015,117,https://www.ubereats.com/ja-JP/yokohama/food-delivery/%E3%82%A2%E3%82%B7%E3%82%A2%E3%83%B3%E3%82%BF%E3%82%A4%E3%83%8B%E3%83%B3%E3%82%AF%E3%82%A2%E3%83%A0%E3%83%AA%E3%83%83%E3%83%88-asian-dinning-amrit/ht6TWrH6Q6u1YvlIlAjaHg/
神奈川県横浜市港北区日吉本町1丁目23-3 1F Yokohama,22:00,35.5528251,139.646146,そば処 たつ吉 Japanese Noodle TATSUKICHI,11:30,4.3,223-0062,150,https://www.ubereats.com/ja-JP/yokohama/food-delivery/%E3%81%9D%E3%81%AF%E5%87%A6-%E3%81%9F%E3%81%A4%E5%90%89-japanese-noodle-tatsukichi/Q_k2ZnpoRaK_1n197p79KA/
川崎市高津区 溝口2-6-2 Kawasaki,23:00,35.600551,139.6102104,東京餃子軒 溝の口店 Tokyo Gyoza ken,11:00,4.3,213-0001,179,https://www.ubereats.com/ja-JP/yokohama/food-delivery/%E6%9D%B1%E4%BA%AC%E9%A4%83%E5%AD%90%E8%BB%92-%E6%BA%9D%E3%81%AE%E5%8F%A3%E5%BA%97-tokyo-gyoza-ken/7_xckd4PScCFxyRAmk2etg/
川崎市中原区 小杉町1-519 田原ビル1F Kawasaki,22:00,35.579097,139.659222,（ハラル）インド・パキスタン料理専門店 パンジャビ ダバ （HALAL） Indian&PakistanRestaurant Punjabi Dhaba,11:00,4.8,211-0063,45,https://www.ubereats.com/ja-JP/yokohama/food-delivery/%E3%83%8F%E3%83%A9%E3%83%AB%E3%82%A4%E3%83%B3%E3%83%88%E3%83%BB%E3%83%8F%E3%82%AD%E3%82%B9%E3%82%BF%E3%83%B3%E6%96%99%E7%90%86%E5%B0%82%E9%96%80%E5%BA%97-%E3%83%8F%E3%83%B3%E3%82%B7%E3%83%A3%E3%83%92-%E3%82%BF%E3%83%8F-halal-indian%26pakistanrestaurant-punjabi-dhaba/c5p_3_StTYiVuKxddl_K6A/
神奈川県川崎市中原区小杉町3-430-22 コパンビル5Ｆ,23:00,35.5744906,139.6586539,木村屋本店 武蔵小杉店 Kimuraya Honten MUSASHIKOSUGI,16:00,4.5,211-0063,22,https://www.ubereats.com/ja-JP/yokohama/food-delivery/%E6%9C%A8%E6%9D%91%E5%B1%8B%E6%9C%AC%E5%BA%97-%E6%AD%A6%E8%94%B5%E5%B0%8F%E6%9D%89%E5%BA%97-kimuraya-honten-musashikosugi/9PDjRGm5S3yEYyelASZ1AA/
Nakahara-Ku Kamishinjō 2 Chome−6 Kawasaki-Shi Kanagawa-ken,22:30,35.58813320000001,139.6308301,エビン 武蔵新城店 yabin musashishinjo,10:45,4.4,211-0045,89,https://www.ubereats.com/ja-JP/yokohama/food-delivery/%E3%82%A8%E3%83%92%E3%83%B3-%E6%AD%A6%E8%94%B5%E6%96%B0%E5%9F%8E%E5%BA%97-yabin-musashishinjo/ZOpn0H8qSO2MyzA3D3QxNg/
3-70-4 Kosugi-Tyo Nakahara-Ku Kawasaki-Shi Kanagawa,23:00,35.572958,139.6567944,パンジャビバーベキュー Punjabi BBQ,11:00,4.5,211-0063,126,https://www.ubereats.com/ja-JP/yokohama/food-delivery/%E3%83%8F%E3%83%B3%E3%82%B7%E3%83%A3%E3%83%92%E3%83%8F%E3%83%BC%E3%83%98%E3%82%AD%E3%83%A5%E3%83%BC-punjabi-bbq/OTZ6Gj2JStOw4FrpxZudkQ/
1 Chome-6-20 Shimokodanaka Nakahara-Ku Kawasaki-Shi Kanagawa-ken,22:30,35.581066,139.638923,ナマステヒマラヤ Namaste Himalaya,11:00,4.6,211-0041,57,https://www.ubereats.com/ja-JP/yokohama/food-delivery/%E3%83%8A%E3%83%9E%E3%82%B9%E3%83%86%E3%83%92%E3%83%9E%E3%83%A9%E3%83%A4-namaste-himalaya/Wf9L2-91QXCAFdByzJb9VA/
神奈川県川崎市中原区上新城２丁目１１－１０,22:00,35.5876194,139.6287887,ジョナサン 武蔵新城店 Jonathan's Musashi Shinjo,10:00,4.6,211-0045,40,https://www.ubereats.com/ja-JP/yokohama/food-delivery/%E3%82%B7%E3%83%A7%E3%83%8A%E3%82%B5%E3%83%B3-%E6%AD%A6%E8%94%B5%E6%96%B0%E5%9F%8E%E5%BA%97-jonathans-musashi-shinjo/BzCaAhBGSGOmce_s-k2MDQ/
神奈川県川崎市高津区下作延4-24-44,23:00,35.5972875,139.6035133,かつや 川崎梶ケ谷店 Katsuya KAWASAKI KAJIGAYA,10:00,4.5,213-0033,493,https://www.ubereats.com/ja-JP/yokohama/food-delivery/%E3%81%8B%E3%81%A4%E3%82%84-%E5%B7%9D%E5%B4%8E%E6%A2%B6%E3%82%B1%E8%B0%B7%E5%BA%97-katsuya-kawasaki-kajigaya/yTqAwhu5QOSn-2dpddFMzw/
神奈川県川崎市中原区小杉町3-430-1,23:00,35.574352,139.65854,牛タン圭助 武蔵小杉 Gyutan Keisuke MUSASHIKOSUGI,14:00,4.2,211-0063,231,https://www.ubereats.com/ja-JP/yokohama/food-delivery/%E7%89%9B%E3%82%BF%E3%83%B3%E5%9C%AD%E5%8A%A9-%E6%AD%A6%E8%94%B5%E5%B0%8F%E6%9D%89-gyutan-keisuke-musashikosugi/lVAPMJMkRiGoMySlG0E90Q/
神奈川県川崎市中原区新城5-1-3 フクシマビル,22:30,35.586835,139.629612,松乃家 武蔵新城店 Matsunoya Musashi Shinjo,10:00,4.4,211-0044,270,https://www.ubereats.com/ja-JP/yokohama/food-delivery/%E6%9D%BE%E4%B9%83%E5%AE%B6-%E6%AD%A6%E8%94%B5%E6%96%B0%E5%9F%8E%E5%BA%97-matsunoya-musashi-shinjo/3Wq7aVYxRCaFrOHK8wVtRg/
神奈川県横浜市港北区日吉本町1-16 ﾏｲｷｬｯｽﾙ日吉1階 Kanagawa,23:00,35.5539249,139.6439539,カレーハウス CoCo壱番屋 港北区日吉中央通り Curry House CoCo Ichibanya Kouhokuku Hiyoshichuodori,11:00,4.9,223-0062,14,https://www.ubereats.com/ja-JP/yokohama/food-delivery/%E3%82%AB%E3%83%AC%E3%83%BC%E3%83%8F%E3%82%A6%E3%82%B9-coco%E5%A3%B1%E7%95%AA%E5%B1%8B-%E6%B8%AF%E5%8C%97%E5%8C%BA%E6%97%A5%E5%90%89%E4%B8%AD%E5%A4%AE%E9%80%9A%E3%82%8A-curry-house-coco-ichibanya-kouhokuku-hiyoshichuodori/geeOcwkIR1ihdYzmlaiiwg/
神奈川県川崎市中原区下新城２−６−１,22:00,35.5781014,139.6331639,ピザハット 下新城 Pizza Hut SHIMOSHINNJOU,11:00,4.5,211-0042,159,https://www.ubereats.com/ja-JP/yokohama/food-delivery/%E3%83%92%E3%82%B5%E3%83%8F%E3%83%83%E3%83%88-%E4%B8%8B%E6%96%B0%E5%9F%8E-pizza-hut-shimoshinnjou/sopRqEHlRpybq4IhG6S79w/
川崎市川崎区新丸子町911-1 ユニーブル小杉2f Kawasaki,22:45,35.5783721,139.6606351,川湘楼 Kawsashoro,10:30,4.5,211-0005,464,https://www.ubereats.com/ja-JP/yokohama/food-delivery/%E5%B7%9D%E6%B9%98%E6%A5%BC-kawsashoro/yXzU_4T6TqSza-sr1BgO_w/
神奈川県川崎市中原区新丸子東1-772 藤川ﾋﾞﾙ1F Kanagawa,22:00,35.5803846,139.6621692,情熱のすためしどんどん 新丸子 Sutameshidondon Shinmaruko,11:00,4.4,211-0004,121,https://www.ubereats.com/ja-JP/yokohama/food-delivery/%E6%83%85%E7%86%B1%E3%81%AE%E3%81%99%E3%81%9F%E3%82%81%E3%81%97%E3%81%A8%E3%82%93%E3%81%A8%E3%82%93-%E6%96%B0%E4%B8%B8%E5%AD%90-sutameshidondon-shinmaruko/T7Fa_secRD6W66-9f1BweQ/
日本、〒 神奈川県川崎市中原区上新城２丁目７−１９ 神奈川県,22:50,35.58829869999999,139.630427,boba tea 武蔵新城店 boba tea Musashishinjo,10:00,4.6,211-0045,500,https://www.ubereats.com/ja-JP/yokohama/food-delivery/boba-tea-%E6%AD%A6%E8%94%B5%E6%96%B0%E5%9F%8E%E5%BA%97-boba-tea-musashishinjo/djXwc14ZSy-H7VMsfEiFIg/
神奈川県川崎市中原区新丸子町739番地 Kanagawa,22:00,35.5806919,139.6612956,キッチンオリジン 新丸子 Kitchen Origin Shinmaruko,10:00,4.0,211-0005,19,https://www.ubereats.com/ja-JP/yokohama/food-delivery/%E3%82%AD%E3%83%83%E3%83%81%E3%83%B3%E3%82%AA%E3%83%AA%E3%82%B7%E3%83%B3-%E6%96%B0%E4%B8%B8%E5%AD%90-kitchen-origin-shinmaruko/GfSr217DQfSl4Q_azGZAEg/
神奈川県川崎市中原区今井仲町４－３１,22:00,35.5769015,139.6509345,バーミヤン 武蔵小杉店 Bamiyan Musashi Kosugi,10:30,4.4,211-0065,329,https://www.ubereats.com/ja-JP/yokohama/food-delivery/%E3%83%8F%E3%83%BC%E3%83%9F%E3%83%A4%E3%83%B3-%E6%AD%A6%E8%94%B5%E5%B0%8F%E6%9D%89%E5%BA%97-bamiyan-musashi-kosugi/ZsbAOJktS4iy0rpst0X6TA/
神奈川県川崎市中原区小杉町１丁目４０３番地 小杉ビルディング２Ｆ,22:00,35.57687028639184,139.65891587519448,ガスト 武蔵小杉駅前店 Gusto Musashi Kosugi,10:30,4.5,,168,https://www.ubereats.com/ja-JP/yokohama/food-delivery/%E3%82%AB%E3%82%B9%E3%83%88-%E6%AD%A6%E8%94%B5%E5%B0%8F%E6%9D%89%E9%A7%85%E5%89%8D%E5%BA%97-gusto-musashi-kosugi/68iITecGQP-GRmJEOhCTkA/
神奈川県川崎市中原区上新城2-10-15 新城ﾛｲﾔﾙﾌﾟﾗｻﾞ1F,22:30,35.587492,139.630186,松屋 武蔵新城店 Matsuya Musashishinjo,10:00,4.5,211-0045,262,https://www.ubereats.com/ja-JP/yokohama/food-delivery/%E6%9D%BE%E5%B1%8B-%E6%AD%A6%E8%94%B5%E6%96%B0%E5%9F%8E%E5%BA%97-matsuya-musashishinjo/hX8Pj-iPQEGUe7vPVlRCGw/
神奈川県川崎市中原区宮内4丁目7-12 Kanagawa,22:00,35.5843471,139.6461931,ビッグボーイ 川崎等々力 BigBoy Kawasakitodoroki,11:00,4.5,211-0051,57,https://www.ubereats.com/ja-JP/yokohama/food-delivery/%E3%83%92%E3%83%83%E3%82%AF%E3%83%9B%E3%83%BC%E3%82%A4-%E5%B7%9D%E5%B4%8E%E7%AD%89%E3%80%85%E5%8A%9B-bigboy-kawasakitodoroki/IA_Ki0-dQWe5SrytViO61A/
溝口１丁目９−６ 丸屋ビル 4F 川崎市 神奈川県,23:00,35.5997922,139.6122106,Tabele°溝の口 Tabele Mizonokuchi,11:30,4.4,213-0001,38,https://www.ubereats.com/ja-JP/yokohama/food-delivery/tabele%E6%BA%9D%E3%81%AE%E5%8F%A3-tabele-mizonokuchi/o1Jxcqp5R1uB_w-FCs7FXg/
神奈川県川崎市高津区二子４－８－２,22:00,35.6022618,139.6189584,デニーズ 高津店 Denny's TAKATSU,11:00,4.2,213-0002,147,https://www.ubereats.com/ja-JP/yokohama/food-delivery/%E3%83%86%E3%83%8B%E3%83%BC%E3%82%B9-%E9%AB%98%E6%B4%A5%E5%BA%97-dennys-takatsu/LkdIwGPRRW-UokIVbd_UuA/?promo=6d813684-0053-4b7f-b6d1-d61602e98959
川崎市中原区上小田中4-2-1 Beans1F,23:00,35.5813758,139.6409824,すき家 武蔵中原店 Sukiya Musashinakahara,10:00,,211-0053,,https://www.ubereats.com/ja-JP/yokohama/food-delivery/%E3%81%99%E3%81%8D%E5%AE%B6-%E6%AD%A6%E8%94%B5%E4%B8%AD%E5%8E%9F%E5%BA%97-sukiya-musashinakahara/nAfdxT6ySHWlKcGwkN0mEA/
神奈川県横浜市港北区日吉本町1-3-3 力亭ビル１階東号,22:00,35.5538367,139.6453188,からやま 日吉店 Karayama HIYOSHI,10:30,4.5,223-0052,500,https://www.ubereats.com/ja-JP/yokohama/food-delivery/%E3%81%8B%E3%82%89%E3%82%84%E3%81%BE-%E6%97%A5%E5%90%89%E5%BA%97-karayama-hiyoshi/gqJViZhPTbSuTmX1mzVN5w/
神奈川県川崎市中原区小杉町3丁目441番26,23:59,35.574114806653,139.65861862475487,吉野家 武蔵小杉南口店 Yoshinoya MUSASHIKOSUGI MINAMIGUCHI,09:00,4.5,,192,https://www.ubereats.com/ja-JP/yokohama/food-delivery/%E5%90%89%E9%87%8E%E5%AE%B6-%E6%AD%A6%E8%94%B5%E5%B0%8F%E6%9D%89%E5%8D%97%E5%8F%A3%E5%BA%97-yoshinoya-musashikosugi-minamiguchi/j4_S_Oi7QkehwrExCdepQg/
1 Chome-8-5 Mizonokuchi Takatsu-Ku フジモトビル２Ｆ Kawasaki-Shi Kanagawa-ken,22:30,35.599651,139.612723,大戸屋ごはん処  溝の口店 Ootoya Mizonokuchi,11:00,4.5,213-0001,500,https://www.ubereats.com/ja-JP/yokohama/food-delivery/%E5%A4%A7%E6%88%B8%E5%B1%8B%E3%81%93%E3%81%AF%E3%82%93%E5%87%A6-%E6%BA%9D%E3%81%AE%E5%8F%A3%E5%BA%97-ootoya-mizonokuchi/sC54AmpyQKCsWGzvO55S1g/
3-Chōme-22-2 Kosugimachi Nakahara-Ku,22:00,35.573302399408284,139.65717506052536,オウルティー OWL TEA,11:00,4.6,,500,https://www.ubereats.com/ja-JP/yokohama/food-delivery/%E3%82%AA%E3%82%A6%E3%83%AB%E3%83%86%E3%82%A3%E3%83%BC-owl-tea/qbeU9y2SRQK3L3WwY6kBBw/
神奈川県川崎市中原区小杉町3-472 武蔵小杉東急スクエア ステーションマーケット,22:00,35.5758915,139.6594172,からやま 武蔵小杉店 Karayama MUSASHI-KOSUGI,10:30,4.6,211-8619,500,https://www.ubereats.com/ja-JP/yokohama/food-delivery/%E3%81%8B%E3%82%89%E3%82%84%E3%81%BE-%E6%AD%A6%E8%94%B5%E5%B0%8F%E6%9D%89%E5%BA%97-karayama-musashi-kosugi/vNWLv-GISt-J3Qwdjp9Dbw/
中原区上新城2-8-22 三井ビル１階,22:10,35.5875943418719,139.63053691861742,Me Tea,10:00,4.5,,500,https://www.ubereats.com/ja-JP/yokohama/food-delivery/me-tea/RwedLRzuQxuqtLb-2LGOpA/
神奈川県川崎市高津区溝口2-8-12,23:59,35.6002971,139.6111848,伝説のすた丼屋  溝の口 Densetsu no Sutadonya Mizonokuchi,11:00,4.4,213-0001,500,https://www.ubereats.com/ja-JP/yokohama/food-delivery/%E4%BC%9D%E8%AA%AC%E3%81%AE%E3%81%99%E3%81%9F%E4%B8%BC%E5%B1%8B-%E6%BA%9D%E3%81%AE%E5%8F%A3-densetsu-no-sutadonya-mizonokuchi/WII3WLGmQsKBGSvgGQFDxA/
神奈川県川崎市中原区新城３－２－１６,23:00,35.586586,139.629997,マクドナルド 武蔵新城店 McDonald's MUSASHI SHINJO,10:30,4.5,2110044,500,https://www.ubereats.com/ja-JP/yokohama/food-delivery/%E3%83%9E%E3%82%AF%E3%83%88%E3%83%8A%E3%83%AB%E3%83%88-%E6%AD%A6%E8%94%B5%E6%96%B0%E5%9F%8E%E5%BA%97-mcdonalds-musashi-shinjo/9UpEn7QgQ4K78ItzftBY-w/
Nakahara-Ku Kizuki 4 Chome−22 Kawasaki-Shi Kanagawa-ken,22:00,35.558363,139.657382,インドダイニングアリア Indian Dining Aria,11:00,4.6,211-0025,500,https://www.ubereats.com/ja-JP/yokohama/food-delivery/%E3%82%A4%E3%83%B3%E3%83%88%E3%82%BF%E3%82%A4%E3%83%8B%E3%83%B3%E3%82%AF%E3%82%A2%E3%83%AA%E3%82%A2-indian-dining-aria/j53TCiGnTcWwU2GcqGPIPw/?promo=8c143096-681a-4b90-adae-6d8722448c98
神奈川県川崎市中原区新丸子東2-924-8 Kanagawa,23:59,35.5771405,139.6610285,串カツ田中 武蔵小杉 Kushikatsu Tanaka Musashikosugi,12:00,,211-0004,,https://www.ubereats.com/ja-JP/yokohama/food-delivery/%E4%B8%B2%E3%82%AB%E3%83%84%E7%94%B0%E4%B8%AD-%E6%AD%A6%E8%94%B5%E5%B0%8F%E6%9D%89-kushikatsu-tanaka-musashikosugi/2hLkihniRvmYdD3RBKLjaQ/?promo=8a71acca-69ab-484a-8aca-abbcd47f4677
Nakahara-Ku Kitayachō Kawasaki-Shi Kanagawa-ken,22:30,35.56244,139.670806,四川麻辣火鍋 天府 平間店 SHISEN MA-RA-HINABE TENFU HIRAMA,11:00,4.5,211-0015,106,https://www.ubereats.com/ja-JP/yokohama/food-delivery/%E5%9B%9B%E5%B7%9D%E9%BA%BB%E8%BE%A3%E7%81%AB%E9%8D%8B-%E5%A4%A9%E5%BA%9C-%E5%B9%B3%E9%96%93%E5%BA%97-shisen-ma-ra-hinabe-tenfu-hirama/5vRhnQ-HRi6LAw1N5SQXeQ/
