address,close_hour,id,latitude,longitude,name,open_hour,point,postal_code,reviews,url
神奈川県川崎市高津区久本1-4-10 Kanagawa,22:30,uVctprsCRomSUacLIUyn7A,35.5986758,139.6104081,松屋 溝の口南口店 Matsuya Mizonokuchi Minamiguchi,10:00,,213-0011,,https://www.ubereats.com/ja-JP/yokohama/food-delivery/%E6%9D%BE%E5%B1%8B-%E6%BA%9D%E3%81%AE%E5%8F%A3%E5%8D%97%E5%8F%A3%E5%BA%97-matsuya-mizonokuchi-minamiguchi/uVctprsCRomSUacLIUyn7A/
神奈川県横浜市港北区綱島東２－７－３１,22:00,Iy4Ff974Rz6kOaL0E1dyNA,35.5411079,139.6398592,デニーズ 綱島東店 Denny's TSUNASHIMAHIGASHI,11:00,4.5,223-0052,145,https://www.ubereats.com/ja-JP/yokohama/food-delivery/%E3%83%86%E3%83%8B%E3%83%BC%E3%82%B9-%E7%B6%B1%E5%B3%B6%E6%9D%B1%E5%BA%97-dennys-tsunashimahigashi/Iy4Ff974Rz6kOaL0E1dyNA/
Nakahara-Ku Kamikodanaka 6 Chome−22 Kawasaki-Shi Kanagawa-ken,22:00,J0i3G4ogT9iOCgTFsTekkg,35.581268,139.641874,お好み焼き コナモン Okonomiyaki KONAMON,11:00,4.4,211-0053,221,https://www.ubereats.com/ja-JP/yokohama/food-delivery/%E3%81%8A%E5%A5%BD%E3%81%BF%E7%84%BC%E3%81%8D-%E3%82%B3%E3%83%8A%E3%83%A2%E3%83%B3-okonomiyaki-konamon/J0i3G4ogT9iOCgTFsTekkg/
中原区木月1-29-12  吉田店舗ビル１F Kawasaki,22:30,aiEykDElT6y88qAxxm7ufw,35.5658091,139.6514935,binwan,11:00,4.3,211-0025,81,https://www.ubereats.com/ja-JP/yokohama/food-delivery/binwan/aiEykDElT6y88qAxxm7ufw/
Nakahara-Ku Shinmarukomachi 738 Kawasaki-Shi Kanagawa-ken,20:45,d5bmpJyvSWqjcyj6SuFuHQ,35.580484,139.661651,新丸子カレー工房パルコ Parco Curry,11:45,4.7,211-0005,178,https://www.ubereats.com/ja-JP/yokohama/food-delivery/%E6%96%B0%E4%B8%B8%E5%AD%90%E3%82%AB%E3%83%AC%E3%83%BC%E5%B7%A5%E6%88%BF%E3%83%8F%E3%83%AB%E3%82%B3-parco-curry/d5bmpJyvSWqjcyj6SuFuHQ/
川崎市中原区木月3-53-7,23:59,Y1B0FEvWTEOLxAczg9YqwQ,35.5625096,139.6489754,すき家 川崎木月店 Sukiya Kawasaki Kizuki,09:00,4.6,211-0025,187,https://www.ubereats.com/ja-JP/yokohama/food-delivery/%E3%81%99%E3%81%8D%E5%AE%B6-%E5%B7%9D%E5%B4%8E%E6%9C%A8%E6%9C%88%E5%BA%97-sukiya-kawasaki-kizuki/Y1B0FEvWTEOLxAczg9YqwQ/
神奈川県川崎市高津区溝の口1-18-7 澤木ﾋﾞﾙ1F,22:30,mbpapYtcTOmnKsYvzkq8iw,35.600881,139.614587,松屋 溝の口店  Matsuya Mizonokuchi,10:00,4.3,213-0001,208,https://www.ubereats.com/ja-JP/yokohama/food-delivery/%E6%9D%BE%E5%B1%8B-%E6%BA%9D%E3%81%AE%E5%8F%A3%E5%BA%97-matsuya-mizonokuchi/mbpapYtcTOmnKsYvzkq8iw/
3-70-4 Kosugi-Tyo Nakahara-Ku Kawasaki-Shi Kanagawa,23:00,OTZ6Gj2JStOw4FrpxZudkQ,35.572958,139.6567944,パンジャビバーベキュー Punjabi BBQ,11:00,4.5,211-0063,127,https://www.ubereats.com/ja-JP/yokohama/food-delivery/%E3%83%8F%E3%83%B3%E3%82%B7%E3%83%A3%E3%83%92%E3%83%8F%E3%83%BC%E3%83%98%E3%82%AD%E3%83%A5%E3%83%BC-punjabi-bbq/OTZ6Gj2JStOw4FrpxZudkQ/
神奈川県川崎市中原区下新城２−６−１,22:00,sopRqEHlRpybq4IhG6S79w,35.5781014,139.6331639,ピザハット 下新城 Pizza Hut SHIMOSHINNJOU,11:00,4.5,211-0042,158,https://www.ubereats.com/ja-JP/yokohama/food-delivery/%E3%83%92%E3%82%B5%E3%83%8F%E3%83%83%E3%83%88-%E4%B8%8B%E6%96%B0%E5%9F%8E-pizza-hut-shimoshinnjou/sopRqEHlRpybq4IhG6S79w/
神奈川県川崎市幸区南加瀬２丁目７－１８,22:00,dQBgmN-kQqqLvvQrybSLVg,35.5497285,139.659385,ガスト 南加瀬店 Gusto Minami Kase,10:30,4.6,212-0055,120,https://www.ubereats.com/ja-JP/yokohama/food-delivery/%E3%82%AB%E3%82%B9%E3%83%88-%E5%8D%97%E5%8A%A0%E7%80%AC%E5%BA%97-gusto-minami-kase/dQBgmN-kQqqLvvQrybSLVg/
中原区新丸子東２－９２６－１５  マノア武蔵小杉１階 Kawasaki,22:30,ei3ueFRFTk6Jm_szMWNmNA,35.5770788,139.6627968,マヤレストラン Maya Restaurant,10:30,4.5,211-0004,80,https://www.ubereats.com/ja-JP/yokohama/food-delivery/%E3%83%9E%E3%83%A4%E3%83%AC%E3%82%B9%E3%83%88%E3%83%A9%E3%83%B3-maya-restaurant/ei3ueFRFTk6Jm_szMWNmNA/
Hamatora Hiyoshi Shop 1F Kōhoku-Ku Kanagawa-ken,20:00,xWz9GycQS92vdDKJRwxSmQ,35.555392,139.645156,麺場ハマトラ 日吉店 Menba Hamatora Hiyoshi,12:00,4.5,223-0062,117,https://www.ubereats.com/ja-JP/yokohama/food-delivery/%E9%BA%BA%E5%A0%B4%E3%83%8F%E3%83%9E%E3%83%88%E3%83%A9-%E6%97%A5%E5%90%89%E5%BA%97-menba-hamatora-hiyoshi/xWz9GycQS92vdDKJRwxSmQ/
神奈川県川崎市中原区木月1-26-11,20:30,i1qfS74jRgGE8yqm9b_qDg,35.5655036,139.6528315,銀座コージーコーナー 元住吉店 Ginza Cozy Corner Motosumiyoshi,10:00,4.6,211-0025,49,https://www.ubereats.com/ja-JP/yokohama/food-delivery/%E9%8A%80%E5%BA%A7%E3%82%B3%E3%83%BC%E3%82%B7%E3%83%BC%E3%82%B3%E3%83%BC%E3%83%8A%E3%83%BC-%E5%85%83%E4%BD%8F%E5%90%89%E5%BA%97-ginza-cozy-corner-motosumiyoshi/i1qfS74jRgGE8yqm9b_qDg/
神奈川県川崎市高津区溝口1-14-1,22:00,GOhpcU7dSWyyXh0jIg1AIg,35.6002093,139.6138008,からやま 溝の口 Karayama MIZONOKUCHI,10:30,4.4,213-0001,265,https://www.ubereats.com/ja-JP/yokohama/food-delivery/%E3%81%8B%E3%82%89%E3%82%84%E3%81%BE-%E6%BA%9D%E3%81%AE%E5%8F%A3-karayama-mizonokuchi/GOhpcU7dSWyyXh0jIg1AIg/
50 Chitose Takatsu-Ku Kawasaki Kanagawa  Japan,23:59,3uj3mgnGTBaIyZ-fsTpCog,35.57225269496751,139.62259100057307,すき家 高津野川店 Sukiya Takaduno-Gawa,09:00,4.4,213-0022,118,https://www.ubereats.com/ja-JP/yokohama/food-delivery/%E3%81%99%E3%81%8D%E5%AE%B6-%E9%AB%98%E6%B4%A5%E9%87%8E%E5%B7%9D%E5%BA%97-sukiya-takaduno-gawa/3uj3mgnGTBaIyZ-fsTpCog/
神奈川県川崎市中原区新城５−４−３,21:00,LtyNbd5XTGWZBFbBqTXlZw,35.586289,139.629519,ケンタッキーフライドチキン 武蔵新城店 Kentucky Fried Chicken MUSASHISHINNJOU,10:30,4.4,211-0044,500,https://www.ubereats.com/ja-JP/yokohama/food-delivery/%E3%82%B1%E3%83%B3%E3%82%BF%E3%83%83%E3%82%AD%E3%83%BC%E3%83%95%E3%83%A9%E3%82%A4%E3%83%88%E3%83%81%E3%82%AD%E3%83%B3-%E6%AD%A6%E8%94%B5%E6%96%B0%E5%9F%8E%E5%BA%97-kentucky-fried-chicken-musashishinnjou/LtyNbd5XTGWZBFbBqTXlZw/
Saiwai-Ku Shintsukagoshi 鹿島田サウザンド・モール ２Ｆ,23:00,z51EYhvzQGSC67t5UpmbdQ,35.550466,139.676029,中華酒家飯店角鹿 Chinese Restaurant Kadoshika,11:30,4.5,,102,https://www.ubereats.com/ja-JP/yokohama/food-delivery/%E4%B8%AD%E8%8F%AF%E9%85%92%E5%AE%B6%E9%A3%AF%E5%BA%97%E8%A7%92%E9%B9%BF-chinese-restaurant-kadoshika/z51EYhvzQGSC67t5UpmbdQ/
神奈川県横浜市港北区日吉本町1-3-3 力亭ビル１階東号,22:00,gqJViZhPTbSuTmX1mzVN5w,35.5538367,139.6453188,からやま 日吉店 Karayama HIYOSHI,10:30,4.6,223-0052,500,https://www.ubereats.com/ja-JP/yokohama/food-delivery/%E3%81%8B%E3%82%89%E3%82%84%E3%81%BE-%E6%97%A5%E5%90%89%E5%BA%97-karayama-hiyoshi/gqJViZhPTbSuTmX1mzVN5w/
Japan 〒 Kanagawa-Ken Kawasaki-Shi Nakahara-Ku Kizuki 1 Chome−36−12,22:30,Dmj-NbM5S3qgcx949jnbGw,35.56460089999999,139.6537128,大戸屋ごはん処 元住吉駅前店 Ootoya MOTOSUMIYOSHI,11:00,4.5,211-0025,500,https://www.ubereats.com/ja-JP/yokohama/food-delivery/%E5%A4%A7%E6%88%B8%E5%B1%8B%E3%81%93%E3%81%AF%E3%82%93%E5%87%A6-%E5%85%83%E4%BD%8F%E5%90%89%E9%A7%85%E5%89%8D%E5%BA%97-ootoya-motosumiyoshi/Dmj-NbM5S3qgcx949jnbGw/
神奈川県川崎市中原区井田中ノ町2-1 Yokohama,21:45,ZddbPrHMTyu1s1keuR0Hug,35.5654536,139.6477467,丼丸 元住吉  Bay Donmaru Motosumiyoshi,11:00,4.5,211-0034,336,https://www.ubereats.com/ja-JP/yokohama/food-delivery/%E4%B8%BC%E4%B8%B8-%E5%85%83%E4%BD%8F%E5%90%89-bay-donmaru-motosumiyoshi/ZddbPrHMTyu1s1keuR0Hug/
神奈川県川崎市中原区上小田中6-17-7,21:15,XE8PaiYeTK6-M-Q9Ezeugg,35.5792345,139.6447905,なか卯 武蔵中原店 Nakau Musashi-Nakahara,10:00,4.5,211-0053,328,https://www.ubereats.com/ja-JP/yokohama/food-delivery/%E3%81%AA%E3%81%8B%E5%8D%AF-%E6%AD%A6%E8%94%B5%E4%B8%AD%E5%8E%9F%E5%BA%97-nakau-musashi-nakahara/XE8PaiYeTK6-M-Q9Ezeugg/
Nakahara-Ku Kizuki 4 Chome−22 Kawasaki-Shi Kanagawa-ken,22:00,j53TCiGnTcWwU2GcqGPIPw,35.558363,139.657382,インドダイニングアリア Indian Dining Aria,11:00,4.6,211-0025,500,https://www.ubereats.com/ja-JP/yokohama/food-delivery/%E3%82%A4%E3%83%B3%E3%83%88%E3%82%BF%E3%82%A4%E3%83%8B%E3%83%B3%E3%82%AF%E3%82%A2%E3%83%AA%E3%82%A2-indian-dining-aria/j53TCiGnTcWwU2GcqGPIPw/
川崎市川崎区新丸子町911-1 ユニーブル小杉2f Kawasaki,22:45,yXzU_4T6TqSza-sr1BgO_w,35.5783721,139.6606351,川湘楼 Kawsashoro,10:30,4.5,211-0005,462,https://www.ubereats.com/ja-JP/yokohama/food-delivery/%E5%B7%9D%E6%B9%98%E6%A5%BC-kawsashoro/yXzU_4T6TqSza-sr1BgO_w/
神奈川県川崎市中原区新城5-1-3 フクシマビル,22:30,3Wq7aVYxRCaFrOHK8wVtRg,35.586835,139.629612,松乃家 武蔵新城店 Matsunoya Musashi Shinjo,10:00,4.4,211-0044,257,https://www.ubereats.com/ja-JP/yokohama/food-delivery/%E6%9D%BE%E4%B9%83%E5%AE%B6-%E6%AD%A6%E8%94%B5%E6%96%B0%E5%9F%8E%E5%BA%97-matsunoya-musashi-shinjo/3Wq7aVYxRCaFrOHK8wVtRg/
神奈川県川崎市中原区小杉町3-430-1,23:00,lVAPMJMkRiGoMySlG0E90Q,35.574352,139.65854,牛タン圭助 武蔵小杉 Gyutan Keisuke MUSASHIKOSUGI,14:00,4.2,211-0063,230,https://www.ubereats.com/ja-JP/yokohama/food-delivery/%E7%89%9B%E3%82%BF%E3%83%B3%E5%9C%AD%E5%8A%A9-%E6%AD%A6%E8%94%B5%E5%B0%8F%E6%9D%89-gyutan-keisuke-musashikosugi/lVAPMJMkRiGoMySlG0E90Q/
神奈川県川崎市中原区小杉町3-472 武蔵小杉東急スクエア ステーションマーケット,22:00,vNWLv-GISt-J3Qwdjp9Dbw,35.5758915,139.6594172,からやま 武蔵小杉店 Karayama MUSASHI-KOSUGI,10:30,4.6,211-8619,500,https://www.ubereats.com/ja-JP/yokohama/food-delivery/%E3%81%8B%E3%82%89%E3%82%84%E3%81%BE-%E6%AD%A6%E8%94%B5%E5%B0%8F%E6%9D%89%E5%BA%97-karayama-musashi-kosugi/vNWLv-GISt-J3Qwdjp9Dbw/
神奈川県川崎市中原区小杉町3-492 JR武蔵小杉駅改札外 北口ロータリー,20:00,nqWm8MVYSpWJXQv1omaihQ,35.57678097863471,139.6591589919707,ベッカーズ 武蔵小杉店 Becker's Musashi-Kosugi,11:00,4.2,,222,https://www.ubereats.com/ja-JP/yokohama/food-delivery/%E3%83%98%E3%83%83%E3%82%AB%E3%83%BC%E3%82%B9-%E6%AD%A6%E8%94%B5%E5%B0%8F%E6%9D%89%E5%BA%97-beckers-musashi-kosugi/nqWm8MVYSpWJXQv1omaihQ/
神奈川県川崎市高津区下作延4-24-44,23:00,yTqAwhu5QOSn-2dpddFMzw,35.5972875,139.6035133,かつや 川崎梶ケ谷店 Katsuya KAWASAKI KAJIGAYA,10:00,4.5,213-0033,498,https://www.ubereats.com/ja-JP/yokohama/food-delivery/%E3%81%8B%E3%81%A4%E3%82%84-%E5%B7%9D%E5%B4%8E%E6%A2%B6%E3%82%B1%E8%B0%B7%E5%BA%97-katsuya-kawasaki-kajigaya/yTqAwhu5QOSn-2dpddFMzw/
５丁目-５-2 二子 高津区 ジュメリ高津1階 川崎市 神奈川県,22:30,CgYF9xNWQMuAftet05SCrw,35.601835,139.617213,エビン 高津店 yabin takatsu,10:45,4.5,213-0002,233,https://www.ubereats.com/ja-JP/yokohama/food-delivery/%E3%82%A8%E3%83%92%E3%83%B3-%E9%AB%98%E6%B4%A5%E5%BA%97-yabin-takatsu/CgYF9xNWQMuAftet05SCrw/
神奈川県横浜市港北区日吉本町１丁目３－２,23:00,0oBTOBHIQMuKPNGB0z1stQ,35.5538196,139.645447,Sガスト 日吉店 S Gusto Hiyoshi,11:00,4.6,223-0062,119,https://www.ubereats.com/ja-JP/yokohama/food-delivery/s%E3%82%AB%E3%82%B9%E3%83%88-%E6%97%A5%E5%90%89%E5%BA%97-s-gusto-hiyoshi/0oBTOBHIQMuKPNGB0z1stQ/
神奈川県川崎市中原区木月四丁目31番7号 リンコー日吉ビル1階,22:00,isH66YsOSjmblAQ6VQWGng,35.5590088,139.6517927,はま寿司 日吉店 Hamazushi Hiyoshi,11:00,4.3,211-0025,140,https://www.ubereats.com/ja-JP/yokohama/food-delivery/%E3%81%AF%E3%81%BE%E5%AF%BF%E5%8F%B8-%E6%97%A5%E5%90%89%E5%BA%97-hamazushi-hiyoshi/isH66YsOSjmblAQ6VQWGng/
2 Chome-2-11 Hiyoshi Kōhoku-Ku サン日吉1F Yokohama-Shi Kanagawa-ken,23:00,oZHvDRP-TgG3tO4pFLjIuA,35.554328,139.646528,ピッツェリア レジスタ Pizzeria Regista,11:00,4.4,223-0061,80,https://www.ubereats.com/ja-JP/yokohama/food-delivery/%E3%83%92%E3%83%83%E3%83%84%E3%82%A7%E3%83%AA%E3%82%A2-%E3%83%AC%E3%82%B7%E3%82%B9%E3%82%BF-pizzeria-regista/oZHvDRP-TgG3tO4pFLjIuA/
神奈川県川崎市幸区下平間２２３,21:00,ujgCbAAFTD2ozhO7Ly6gAg,35.551722,139.680925,ケンタッキーフライドチキン 鹿島田店 Kentucky Fried Chicken Kashimada,10:30,4.4,212-0053,500,https://www.ubereats.com/ja-JP/yokohama/food-delivery/%E3%82%B1%E3%83%B3%E3%82%BF%E3%83%83%E3%82%AD%E3%83%BC%E3%83%95%E3%83%A9%E3%82%A4%E3%83%88%E3%83%81%E3%82%AD%E3%83%B3-%E9%B9%BF%E5%B3%B6%E7%94%B0%E5%BA%97-kentucky-fried-chicken-kashimada/ujgCbAAFTD2ozhO7Ly6gAg/
神奈川県川崎市幸区鹿島田1-1-3 新川崎スクエア3階,21:00,wd9Qesd7T7eqGNmxjqMhRg,35.55037,139.673113,フレッシュネスバーガー 新川崎スクエア店 Freshness Burger Shinkawasaki Square,10:00,4.4,212-0058,323,https://www.ubereats.com/ja-JP/yokohama/food-delivery/%E3%83%95%E3%83%AC%E3%83%83%E3%82%B7%E3%83%A5%E3%83%8D%E3%82%B9%E3%83%8F%E3%83%BC%E3%82%AB%E3%83%BC-%E6%96%B0%E5%B7%9D%E5%B4%8E%E3%82%B9%E3%82%AF%E3%82%A8%E3%82%A2%E5%BA%97-freshness-burger-shinkawasaki-square/wd9Qesd7T7eqGNmxjqMhRg/
神奈川県川崎市幸区南加瀬４−３０−１７,21:00,-J_Bj_WNR2C-WbhhkeEHxQ,35.541772,139.661563,ケンタッキーフライドチキン 南加瀬店 Kentucky Fried Chicken MINAMIKASE,10:30,4.4,212-0055,500,https://www.ubereats.com/ja-JP/yokohama/food-delivery/%E3%82%B1%E3%83%B3%E3%82%BF%E3%83%83%E3%82%AD%E3%83%BC%E3%83%95%E3%83%A9%E3%82%A4%E3%83%88%E3%83%81%E3%82%AD%E3%83%B3-%E5%8D%97%E5%8A%A0%E7%80%AC%E5%BA%97-kentucky-fried-chicken-minamikase/-J_Bj_WNR2C-WbhhkeEHxQ/
2 Chome-36-13 Minamikase Saiwai-Ku Kawasaki-Shi Kanagawa-ken,21:45,hsn3D7NwTzGiHtgGVZgTsQ,35.5459958,139.6604461,ぽんぽこ本°舗 PonpokoPonpo,10:45,4.5,212-0055,120,https://www.ubereats.com/ja-JP/yokohama/food-delivery/%E3%81%BB%E3%82%93%E3%81%BB%E3%81%93%E6%9C%AC%E8%88%97-ponpokoponpo/hsn3D7NwTzGiHtgGVZgTsQ/
川崎市中原区 下沼部1759  山本向河原第2ビル1F 2F Kawasaki,23:00,F_L_ixPlTUG8h70PiKSe-A,35.5732716,139.6676808,ニューナマステヒール向河原店 New Namaste Himal,11:00,4.6,211-0011,133,https://www.ubereats.com/ja-JP/yokohama/food-delivery/%E3%83%8B%E3%83%A5%E3%83%BC%E3%83%8A%E3%83%9E%E3%82%B9%E3%83%86%E3%83%92%E3%83%BC%E3%83%AB%E5%90%91%E6%B2%B3%E5%8E%9F%E5%BA%97-new-namaste-himal/F_L_ixPlTUG8h70PiKSe-A/
川崎市中原区 新丸子町649,21:00,AiW3j8BhR9eDiZ3xW66ptg,35.58147406694477,139.66222534868754,クレープショップサル 川崎新丸子店 Crepe Shop SARU KawasakiShinnmarukoTenn,10:30,4.6,,172,https://www.ubereats.com/ja-JP/yokohama/food-delivery/%E3%82%AF%E3%83%AC%E3%83%BC%E3%83%95%E3%82%B7%E3%83%A7%E3%83%83%E3%83%95%E3%82%B5%E3%83%AB-%E5%B7%9D%E5%B4%8E%E6%96%B0%E4%B8%B8%E5%AD%90%E5%BA%97-crepe-shop-saru-kawasakishinnmarukotenn/AiW3j8BhR9eDiZ3xW66ptg/
川崎市中原区新丸子東1-827 ｸﾘｱ･ﾊｳｽ田中1F,23:59,5_wkJhyYTwSIuJQwEUuQbw,35.5802325,139.66333,すき家 新丸子駅東口店 Sukiya Shin-Marukoeki Higashiguchi,09:00,4.5,211-0004,174,https://www.ubereats.com/ja-JP/yokohama/food-delivery/%E3%81%99%E3%81%8D%E5%AE%B6-%E6%96%B0%E4%B8%B8%E5%AD%90%E9%A7%85%E6%9D%B1%E5%8F%A3%E5%BA%97-sukiya-shin-marukoeki-higashiguchi/5_wkJhyYTwSIuJQwEUuQbw/
神奈川県川崎市高津区溝口1-11-23  ﾀｲﾑﾜﾝﾋﾞﾙ1F,23:00,af3fqoznQt-jizkLdJB8KA,35.60038,139.6117,吉野家 溝の口店  Yoshinoya MIZONOKUCHI,10:00,4.4,213-0001,336,https://www.ubereats.com/ja-JP/yokohama/food-delivery/%E5%90%89%E9%87%8E%E5%AE%B6-%E6%BA%9D%E3%81%AE%E5%8F%A3%E5%BA%97-yoshinoya-mizonokuchi/af3fqoznQt-jizkLdJB8KA/
神奈川県川崎市中原区新丸子東２－８８５,22:00,HZ38aBt6Q7i40am1CYt1sw,35.5790206,139.6635248,デニーズ 武蔵小杉店 Denny's MUSASHI-KOSUGI,11:00,4.4,211-0004,207,https://www.ubereats.com/ja-JP/yokohama/food-delivery/%E3%83%86%E3%83%8B%E3%83%BC%E3%82%B9-%E6%AD%A6%E8%94%B5%E5%B0%8F%E6%9D%89%E5%BA%97-dennys-musashi-kosugi/HZ38aBt6Q7i40am1CYt1sw/
神奈川県川崎市幸区北加瀬３丁目１６－５,22:00,6mWY5LNrRxuzwo8Qvsl_cw,35.5564107,139.6592126,バーミヤン 北加瀬店 Bamiyan Kitakase,10:30,4.5,212-0057,159,https://www.ubereats.com/ja-JP/yokohama/food-delivery/%E3%83%8F%E3%83%BC%E3%83%9F%E3%83%A4%E3%83%B3-%E5%8C%97%E5%8A%A0%E7%80%AC%E5%BA%97-bamiyan-kitakase/6mWY5LNrRxuzwo8Qvsl_cw/
神奈川県川崎市中原区小杉町３丁目１,22:30,8XJe1QlOT3GKm40xmSyE3w,35.5737465,139.657237,ジョナサン 武蔵小杉店 Jonathan's Musashi Kosugi,10:30,4.5,211-0063,88,https://www.ubereats.com/ja-JP/yokohama/food-delivery/%E3%82%B7%E3%83%A7%E3%83%8A%E3%82%B5%E3%83%B3-%E6%AD%A6%E8%94%B5%E5%B0%8F%E6%9D%89%E5%BA%97-jonathans-musashi-kosugi/8XJe1QlOT3GKm40xmSyE3w/
神奈川県川崎市中原区小杉町3丁目441番26,23:59,j4_S_Oi7QkehwrExCdepQg,35.574114806653,139.65861862475487,吉野家 武蔵小杉南口店 Yoshinoya MUSASHIKOSUGI MINAMIGUCHI,09:00,4.5,,195,https://www.ubereats.com/ja-JP/yokohama/food-delivery/%E5%90%89%E9%87%8E%E5%AE%B6-%E6%AD%A6%E8%94%B5%E5%B0%8F%E6%9D%89%E5%8D%97%E5%8F%A3%E5%BA%97-yoshinoya-musashikosugi-minamiguchi/j4_S_Oi7QkehwrExCdepQg/
神奈川県横浜市港北区日吉本町1-16 ﾏｲｷｬｯｽﾙ日吉1階 Kanagawa,23:00,geeOcwkIR1ihdYzmlaiiwg,35.5539249,139.6439539,カレーハウス CoCo壱番屋 港北区日吉中央通り Curry House CoCo Ichibanya Kouhokuku Hiyoshichuodori,11:00,4.9,223-0062,14,https://www.ubereats.com/ja-JP/yokohama/food-delivery/%E3%82%AB%E3%83%AC%E3%83%BC%E3%83%8F%E3%82%A6%E3%82%B9-coco%E5%A3%B1%E7%95%AA%E5%B1%8B-%E6%B8%AF%E5%8C%97%E5%8C%BA%E6%97%A5%E5%90%89%E4%B8%AD%E5%A4%AE%E9%80%9A%E3%82%8A-curry-house-coco-ichibanya-kouhokuku-hiyoshichuodori/geeOcwkIR1ihdYzmlaiiwg/
神奈川県川崎市高津区溝口1-1-3 味の食彩館みぞのくち 3階,20:30,Wq9RupnYRQG1Yku5zmjQwA,35.5988674,139.6116898,ベッカーズ 武蔵溝ノ口店 Becker's Musashi-Mizonokuchi,11:00,4.1,213-0001,192,https://www.ubereats.com/ja-JP/yokohama/food-delivery/%E3%83%98%E3%83%83%E3%82%AB%E3%83%BC%E3%82%B9-%E6%AD%A6%E8%94%B5%E6%BA%9D%E3%83%8E%E5%8F%A3%E5%BA%97-beckers-musashi-mizonokuchi/Wq9RupnYRQG1Yku5zmjQwA/
神奈川県川崎市中原区木月住吉町8-6 Kanagawa,22:00,BeNUmH-2QdieCsMXZw1c4Q,35.5663919,139.6573855,キッチン オリジン 元住吉 Kitchen Origin Motosumiyoshi,10:00,4.5,211-0021,155,https://www.ubereats.com/ja-JP/yokohama/food-delivery/%E3%82%AD%E3%83%83%E3%83%81%E3%83%B3-%E3%82%AA%E3%83%AA%E3%82%B7%E3%83%B3-%E5%85%83%E4%BD%8F%E5%90%89-kitchen-origin-motosumiyoshi/BeNUmH-2QdieCsMXZw1c4Q/
神奈川県川崎市中原区小杉町１丁目４０３番地 小杉ビルディング２Ｆ,22:00,68iITecGQP-GRmJEOhCTkA,35.57687028639184,139.65891587519448,ガスト 武蔵小杉駅前店 Gusto Musashi Kosugi,10:30,4.5,,169,https://www.ubereats.com/ja-JP/yokohama/food-delivery/%E3%82%AB%E3%82%B9%E3%83%88-%E6%AD%A6%E8%94%B5%E5%B0%8F%E6%9D%89%E9%A7%85%E5%89%8D%E5%BA%97-gusto-musashi-kosugi/68iITecGQP-GRmJEOhCTkA/
Nakahara-Ku Kosugimachi ３丁目 Kawasaki-Shi Kanagawa-ken,14:30,zS3-MnxQR8WA6Xrey-TP2Q,35.574423,139.65615,イルヴェント IL VENTO,17:30,4.5,211-0063,95,https://www.ubereats.com/ja-JP/yokohama/food-delivery/%E3%82%A4%E3%83%AB%E3%82%A6%E3%82%A7%E3%83%B3%E3%83%88-il-vento/zS3-MnxQR8WA6Xrey-TP2Q/
神奈川県川崎市高津区溝口１丁目１－３,22:00,8j0RZY7-ShiKHmngOYy3Sw,35.5988984,139.6116289,ジョナサン 溝の口駅前店 Jonathan's Mizonokuchi Ekimae,10:00,4.7,213-0001,69,https://www.ubereats.com/ja-JP/yokohama/food-delivery/%E3%82%B7%E3%83%A7%E3%83%8A%E3%82%B5%E3%83%B3-%E6%BA%9D%E3%81%AE%E5%8F%A3%E9%A7%85%E5%89%8D%E5%BA%97-jonathans-mizonokuchi-ekimae/8j0RZY7-ShiKHmngOYy3Sw/
神奈川県川崎市高津区二子４－８－２,22:00,LkdIwGPRRW-UokIVbd_UuA,35.6022618,139.6189584,デニーズ 高津店 Denny's TAKATSU,11:00,4.2,213-0002,143,https://www.ubereats.com/ja-JP/yokohama/food-delivery/%E3%83%86%E3%83%8B%E3%83%BC%E3%82%B9-%E9%AB%98%E6%B4%A5%E5%BA%97-dennys-takatsu/LkdIwGPRRW-UokIVbd_UuA/
Takatsu-Ku Mizonokuchi 1 Chome−12 永原ビル２F Kawasaki-Shi Kanagawa-ken,23:59,1eDHvzwlRUysFvDPvLr_hQ,35.600539,139.612141,溝の口焼肉 にく野郎 Mizonokuchi Yakiniku Nikuyaro,12:00,4.3,213-0000,114,https://www.ubereats.com/ja-JP/yokohama/food-delivery/%E6%BA%9D%E3%81%AE%E5%8F%A3%E7%84%BC%E8%82%89-%E3%81%AB%E3%81%8F%E9%87%8E%E9%83%8E-mizonokuchi-yakiniku-nikuyaro/1eDHvzwlRUysFvDPvLr_hQ/
Takatsu-Ku Futago 4 Chome−1−２ 中興ビルb1f Kawasaki-Shi Kanagawa-ken,23:00,LijCZj7TQSCduPeGXeuHsA,35.602984,139.616892,べこまる 高津総本家 Bekomaru TAKATSU SOHONKE,11:30,4.4,213-0002,85,https://www.ubereats.com/ja-JP/yokohama/food-delivery/%E3%81%B8%E3%81%93%E3%81%BE%E3%82%8B-%E9%AB%98%E6%B4%A5%E7%B7%8F%E6%9C%AC%E5%AE%B6-bekomaru-takatsu-sohonke/LijCZj7TQSCduPeGXeuHsA/
川崎市高津区 梶ケ谷2-1-14 1F Kawasaki,22:30,IzaXKbwjTo6N4j5-Fys5Qw,35.5909403,139.6042576,ナマステヒマラヤ 梶ヶ谷店 Namaste Himalaya Kajigaya,11:00,4.7,213-0015,53,https://www.ubereats.com/ja-JP/yokohama/food-delivery/%E3%83%8A%E3%83%9E%E3%82%B9%E3%83%86%E3%83%92%E3%83%9E%E3%83%A9%E3%83%A4-%E6%A2%B6%E3%83%B6%E8%B0%B7%E5%BA%97-namaste-himalaya-kajigaya/IzaXKbwjTo6N4j5-Fys5Qw/
神奈川県川崎市中原区下沼部1771,23:00,X47MK5baSEWOSu6SZXpUaw,35.572309017401345,139.66799016666255,竹とんぼ Taketonbo,16:00,4.6,,47,https://www.ubereats.com/ja-JP/yokohama/food-delivery/%E7%AB%B9%E3%81%A8%E3%82%93%E3%81%BB-taketonbo/X47MK5baSEWOSu6SZXpUaw/
神奈川県川崎市幸区南加瀬４丁目３０－１５,22:00,wtlknou6RZW-JNEBXt8gXg,35.5420965,139.6613878,夢庵 南加瀬店 Yumean Minami Kase,10:30,4.5,212-0055,54,https://www.ubereats.com/ja-JP/yokohama/food-delivery/%E5%A4%A2%E5%BA%B5-%E5%8D%97%E5%8A%A0%E7%80%AC%E5%BA%97-yumean-minami-kase/wtlknou6RZW-JNEBXt8gXg/
Nakahara-Ku Kizuki 2 Chome−5 Kawasaki-Shi Kanagawa-ken,22:30,cNFo-EboRPGoyh8TLWczhw,35.564629,139.654879,焼肉 のんちゃん Yakiniku Nonchan,11:00,4.4,211-0025,73,https://www.ubereats.com/ja-JP/yokohama/food-delivery/%E7%84%BC%E8%82%89-%E3%81%AE%E3%82%93%E3%81%A1%E3%82%83%E3%82%93-yakiniku-nonchan/cNFo-EboRPGoyh8TLWczhw/
横浜市港北区箕輪町2-5-5,23:59,-q8yXBB-S7y-BW6Fk7MktQ,35.5436128,139.6420771,すき家 港北箕輪町店 Sukiya Kouhoku Minowacho,09:00,4.6,223-0051,112,https://www.ubereats.com/ja-JP/yokohama/food-delivery/%E3%81%99%E3%81%8D%E5%AE%B6-%E6%B8%AF%E5%8C%97%E7%AE%95%E8%BC%AA%E7%94%BA%E5%BA%97-sukiya-kouhoku-minowacho/-q8yXBB-S7y-BW6Fk7MktQ/
神奈川県川崎市幸区南加瀬３－８－２４,22:00,oyu3QFO8SJefwdUcmrFfrA,35.5450488,139.6608655,デニーズ 南加瀬 Denny's MINAMIKASE,11:00,4.4,212-0055,96,https://www.ubereats.com/ja-JP/yokohama/food-delivery/%E3%83%86%E3%83%8B%E3%83%BC%E3%82%B9-%E5%8D%97%E5%8A%A0%E7%80%AC-dennys-minamikase/oyu3QFO8SJefwdUcmrFfrA/
神奈川県川崎市中原区木月４丁目３８－４ ビージェネテック２Ｆ,22:00,hTCzc94KRLCrDXKrjL3jjg,35.5590738,139.6526413,グラッチェガーデンズ 川崎木月店 Grazie Gardens Kawasaki Kizuki,10:30,4.3,211-0025,33,https://www.ubereats.com/ja-JP/yokohama/food-delivery/%E3%82%AF%E3%83%A9%E3%83%83%E3%83%81%E3%82%A7%E3%82%AB%E3%83%BC%E3%83%86%E3%83%B3%E3%82%B9-%E5%B7%9D%E5%B4%8E%E6%9C%A8%E6%9C%88%E5%BA%97-grazie-gardens-kawasaki-kizuki/hTCzc94KRLCrDXKrjL3jjg/
神奈川県川崎市高津区二子4-1-5 Kanagawa,22:00,tpjELe1oTbCMLur0jjNhyw,35.6029257,139.6171003,キッチン オリジン 高津 Kitchen Origin Takatsu,10:00,4.3,213-0002,49,https://www.ubereats.com/ja-JP/yokohama/food-delivery/%E3%82%AD%E3%83%83%E3%83%81%E3%83%B3-%E3%82%AA%E3%83%AA%E3%82%B7%E3%83%B3-%E9%AB%98%E6%B4%A5-kitchen-origin-takatsu/tpjELe1oTbCMLur0jjNhyw/
川崎市幸区 古市場1-34 Kawasaki,18:00,gEuIADgaS8Cv1mmtRGzYPw,35.5530594,139.6830516,Organic Deli. Katayama,09:00,4.6,212-0052,142,https://www.ubereats.com/ja-JP/yokohama/food-delivery/organic-deli-katayama/gEuIADgaS8Cv1mmtRGzYPw/
川崎市中原区 小杉町1-519 田原ビル1F Kawasaki,22:00,c5p_3_StTYiVuKxddl_K6A,35.579097,139.659222,（ハラル）インド・パキスタン料理専門店 パンジャビ ダバ （HALAL） Indian&PakistanRestaurant Punjabi Dhaba,11:00,4.8,211-0063,46,https://www.ubereats.com/ja-JP/yokohama/food-delivery/%E3%83%8F%E3%83%A9%E3%83%AB%E3%82%A4%E3%83%B3%E3%83%88%E3%83%BB%E3%83%8F%E3%82%AD%E3%82%B9%E3%82%BF%E3%83%B3%E6%96%99%E7%90%86%E5%B0%82%E9%96%80%E5%BA%97-%E3%83%8F%E3%83%B3%E3%82%B7%E3%83%A3%E3%83%92-%E3%82%BF%E3%83%8F-halal-indian%26pakistanrestaurant-punjabi-dhaba/c5p_3_StTYiVuKxddl_K6A/
神奈川県川崎市高津区溝口１－１－５ ホテルメッツ溝ノ口２Ｆ,22:00,dSHxDsu2QTGPMTYhkxnKRQ,35.599306,139.610473,デニーズ 溝ノ口駅前 Denny's MIZONOKUCHIEKIMAE,11:00,4.2,213-0001,77,https://www.ubereats.com/ja-JP/yokohama/food-delivery/%E3%83%86%E3%83%8B%E3%83%BC%E3%82%B9-%E6%BA%9D%E3%83%8E%E5%8F%A3%E9%A7%85%E5%89%8D-dennys-mizonokuchiekimae/dSHxDsu2QTGPMTYhkxnKRQ/
神奈川県川崎市高津区溝口２丁目３－１３,22:00,NwDRwsDqS7-xf7e3844hsA,35.5998771,139.6096381,バーミヤン 溝の口店 Bamiyan Mizonokuchi,10:30,4.4,213-0001,109,https://www.ubereats.com/ja-JP/yokohama/food-delivery/%E3%83%8F%E3%83%BC%E3%83%9F%E3%83%A4%E3%83%B3-%E6%BA%9D%E3%81%AE%E5%8F%A3%E5%BA%97-bamiyan-mizonokuchi/NwDRwsDqS7-xf7e3844hsA/
Japan 〒 Kanagawa-Ken Kawasaki-Shi Saiwai-Ku Kashimada 1 Chome−18−6 KSビル 2F,23:00,QTSFfGZ8Rhiaep3wpScEyw,35.55102520000001,139.6757199,ヒマラヤンカレーニルヴァーナ Himalayan Curry NIRVANA,11:00,4.3,212-0058,29,https://www.ubereats.com/ja-JP/yokohama/food-delivery/%E3%83%92%E3%83%9E%E3%83%A9%E3%83%A4%E3%83%B3%E3%82%AB%E3%83%AC%E3%83%BC%E3%83%8B%E3%83%AB%E3%82%A6%E3%82%A1%E3%83%BC%E3%83%8A-himalayan-curry-nirvana/QTSFfGZ8Rhiaep3wpScEyw/
神奈川県川崎市中原区北谷町8,22:30,ObenIKOGTAekwne6zj1KIw,35.561404,139.671359,松屋 平間店 Matsuya Hirama,10:00,4.3,211-0015,87,https://www.ubereats.com/ja-JP/yokohama/food-delivery/%E6%9D%BE%E5%B1%8B-%E5%B9%B3%E9%96%93%E5%BA%97-matsuya-hirama/ObenIKOGTAekwne6zj1KIw/
川崎市幸区南加瀬4-16-9,23:59,NcJDrAyERVGNc7WTfYzEmg,35.5457742,139.6600164,すき家 川崎南加瀬店 Sukiya Kawasaki Minamikaze,09:00,4.4,212-0055,99,https://www.ubereats.com/ja-JP/yokohama/food-delivery/%E3%81%99%E3%81%8D%E5%AE%B6-%E5%B7%9D%E5%B4%8E%E5%8D%97%E5%8A%A0%E7%80%AC%E5%BA%97-sukiya-kawasaki-minamikaze/NcJDrAyERVGNc7WTfYzEmg/
川崎市高津区 溝口4-2-1 Kawasaki,21:00,uQMBI95YSteG186gcMuOMA,35.6034854,139.6171411,三崎丼丸 高津店 Misaki Donmaru Takatsu-ten,11:00,4.5,213-0001,105,https://www.ubereats.com/ja-JP/yokohama/food-delivery/%E4%B8%89%E5%B4%8E%E4%B8%BC%E4%B8%B8-%E9%AB%98%E6%B4%A5%E5%BA%97-misaki-donmaru-takatsu-ten/uQMBI95YSteG186gcMuOMA/
神奈川県川崎市中原区上新城２丁目１１－１０,22:00,BzCaAhBGSGOmce_s-k2MDQ,35.5876194,139.6287887,ジョナサン 武蔵新城店 Jonathan's Musashi Shinjo,10:00,4.6,211-0045,40,https://www.ubereats.com/ja-JP/yokohama/food-delivery/%E3%82%B7%E3%83%A7%E3%83%8A%E3%82%B5%E3%83%B3-%E6%AD%A6%E8%94%B5%E6%96%B0%E5%9F%8E%E5%BA%97-jonathans-musashi-shinjo/BzCaAhBGSGOmce_s-k2MDQ/
Japan 〒 Kanagawa-Ken Kawasaki-Shi Saiwai-Ku Minamikase 3 Chome−31−２４ スカイハイツ吉田,22:15,3-KlQJCUT0W04hmqZq_IOw,35.5422757,139.6618501,上海龍 南加瀬店 Shanghairyu Minamikase,11:00,4.5,212-0055,28,https://www.ubereats.com/ja-JP/yokohama/food-delivery/%E4%B8%8A%E6%B5%B7%E9%BE%8D-%E5%8D%97%E5%8A%A0%E7%80%AC%E5%BA%97-shanghairyu-minamikase/3-KlQJCUT0W04hmqZq_IOw/
神奈川県 川崎市 中原区 今井南町1-16 Yokohama,21:00,LvJC_AYDR-mi41nRv28tTg,35.574560900801494,139.65536571056924,レストラン ミュー Restaurant μ,11:30,4.1,211-0064,38,https://www.ubereats.com/ja-JP/yokohama/food-delivery/%E3%83%AC%E3%82%B9%E3%83%88%E3%83%A9%E3%83%B3-%E3%83%9F%E3%83%A5%E3%83%BC-restaurant-%CE%BC/LvJC_AYDR-mi41nRv28tTg/
神奈川県川崎市宮前区野川１２３３,22:00,LBuDcES1TRaNZlarMciPag,35.5726885,139.6147273,ガスト 野川店 Gusto Nogawa,10:30,4.5,216-0001,47,https://www.ubereats.com/ja-JP/yokohama/food-delivery/%E3%82%AB%E3%82%B9%E3%83%88-%E9%87%8E%E5%B7%9D%E5%BA%97-gusto-nogawa/LBuDcES1TRaNZlarMciPag/
神奈川県川崎市高津区溝口1-12-1  大久保ビル 2F Yokohama,23:00,Seky06J-Sha0wIIFlocyyg,35.6005089,139.6118769,骨付き肉×ワインバル GRILL MEAT FACTORY 溝の口店 GRILL MEAT FACTORY,17:00,3.6,213-0001,13,https://www.ubereats.com/ja-JP/yokohama/food-delivery/%E9%AA%A8%E4%BB%98%E3%81%8D%E8%82%89%C3%97%E3%83%AF%E3%82%A4%E3%83%B3%E3%83%8F%E3%83%AB-grill-meat-factory-%E6%BA%9D%E3%81%AE%E5%8F%A3%E5%BA%97-grill-meat-factory/Seky06J-Sha0wIIFlocyyg/
神奈川県川崎市高津区溝口1-16-11,22:00,y3VlsNKNTRS5O6TR8ghCEQ,35.6007704,139.6135786,てけてけ 溝の口店 Teketeke MIZONOKUCHITENN,17:00,4.4,213-0001,43,https://www.ubereats.com/ja-JP/yokohama/food-delivery/%E3%81%A6%E3%81%91%E3%81%A6%E3%81%91-%E6%BA%9D%E3%81%AE%E5%8F%A3%E5%BA%97-teketeke-mizonokuchitenn/y3VlsNKNTRS5O6TR8ghCEQ/
神奈川県川崎市中原区小杉町3-430-22 コパンビル5Ｆ,23:00,9PDjRGm5S3yEYyelASZ1AA,35.5744906,139.6586539,木村屋本店 武蔵小杉店 Kimuraya Honten MUSASHIKOSUGI,16:00,4.5,211-0063,22,https://www.ubereats.com/ja-JP/yokohama/food-delivery/%E6%9C%A8%E6%9D%91%E5%B1%8B%E6%9C%AC%E5%BA%97-%E6%AD%A6%E8%94%B5%E5%B0%8F%E6%9D%89%E5%BA%97-kimuraya-honten-musashikosugi/9PDjRGm5S3yEYyelASZ1AA/
川崎市高津区二子4-1-6  グランドール高津 2F,22:00,XybKPBxlStuoRnBU-7cnTQ,35.60287043275762,139.61719009404183,餃子バルランタン 高津駅前店 Gyouza Bar Lantern,12:00,4.2,,23,https://www.ubereats.com/ja-JP/yokohama/food-delivery/%E9%A4%83%E5%AD%90%E3%83%8F%E3%83%AB%E3%83%A9%E3%83%B3%E3%82%BF%E3%83%B3-%E9%AB%98%E6%B4%A5%E9%A7%85%E5%89%8D%E5%BA%97-gyouza-bar-lantern/XybKPBxlStuoRnBU-7cnTQ/
神奈川県川崎市中原区北谷町46 さつきビル1F Tokyo,22:30,zuP7KC68SGG6w2suk9Ltlg,35.5619852,139.6709796,南インドダイニング ラニー South India Dining,10:30,4.4,211-0015,25,https://www.ubereats.com/ja-JP/yokohama/food-delivery/%E5%8D%97%E3%82%A4%E3%83%B3%E3%83%88%E3%82%BF%E3%82%A4%E3%83%8B%E3%83%B3%E3%82%AF-%E3%83%A9%E3%83%8B%E3%83%BC-south-india-dining/zuP7KC68SGG6w2suk9Ltlg/
神奈川県川崎市高津区子母口521-2,23:00,l1RZOK-jSQWSzsemEZ8Ptw,35.5712164,139.6331866,吉野家 子母口店 Yoshinoya SHIBOKUCHI,10:00,4.8,213-0023,23,https://www.ubereats.com/ja-JP/yokohama/food-delivery/%E5%90%89%E9%87%8E%E5%AE%B6-%E5%AD%90%E6%AF%8D%E5%8F%A3%E5%BA%97-yoshinoya-shibokuchi/l1RZOK-jSQWSzsemEZ8Ptw/
神奈川県川崎市中原区上小田中６丁目２１－１４,22:00,9u5KHMo0SR6A93MJrcNUoQ,35.5805426,139.6423767,ジョナサン 武蔵中原店 Jonathan's Musashi Nakahara,10:00,4.6,211-0053,43,https://www.ubereats.com/ja-JP/yokohama/food-delivery/%E3%82%B7%E3%83%A7%E3%83%8A%E3%82%B5%E3%83%B3-%E6%AD%A6%E8%94%B5%E4%B8%AD%E5%8E%9F%E5%BA%97-jonathans-musashi-nakahara/9u5KHMo0SR6A93MJrcNUoQ/
中原区新城３丁目９−３ Yokohama,19:30,ixb-S163TsmKVDH7MR-0Ng,35.5852164,139.6305792,あおぞらマルシェ 武蔵新城店 Aozoramarche MusashiShinjo-Shop,11:00,4.4,211-0044,36,https://www.ubereats.com/ja-JP/yokohama/food-delivery/%E3%81%82%E3%81%8A%E3%81%9D%E3%82%89%E3%83%9E%E3%83%AB%E3%82%B7%E3%82%A7-%E6%AD%A6%E8%94%B5%E6%96%B0%E5%9F%8E%E5%BA%97-aozoramarche-musashishinjo-shop/ixb-S163TsmKVDH7MR-0Ng/
川崎市幸区鹿島田1丁目18-1153番地  KSビル1F,23:59,ca2s_hfaQRqos1SxyVnSUQ,35.5510179,139.6757094,すき家 鹿島田駅前店 Sukiya Kashimada Ekimae,09:00,4.4,212-0058,73,https://www.ubereats.com/ja-JP/yokohama/food-delivery/%E3%81%99%E3%81%8D%E5%AE%B6-%E9%B9%BF%E5%B3%B6%E7%94%B0%E9%A7%85%E5%89%8D%E5%BA%97-sukiya-kashimada-ekimae/ca2s_hfaQRqos1SxyVnSUQ/
